name,state_code,latitude,longitude
Abbeville,AL,31.57184,-85.25049
Adamsville,AL,33.60094,-86.95611
Alabaster,AL,33.24428,-86.81638
Albertville,AL,34.26783,-86.20878
Alexander City,AL,32.94401,-85.95385
Alexandria,AL,33.77399,-85.88552
Aliceville,AL,33.12957,-88.15142
Andalusia,AL,31.30808,-86.48243
Anniston,AL,33.65983,-85.83163
Arab,AL,34.31815,-86.49582
Argo,AL,33.68778,-86.50051
Ashford,AL,31.18296,-85.23632
Ashland,AL,33.27373,-85.83607
Ashville,AL,33.83704,-86.25442
Athens,AL,34.80243,-86.97219
Atmore,AL,31.02379,-87.49387
Attalla,AL,34.02176,-86.08859
Auburn,AL,32.60986,-85.48078
Autauga County,AL,32.53492,-86.64276
Baldwin County,AL,30.66097,-87.74984
Ballplay,AL,34.05871,-85.80802
Barbour County,AL,31.8696,-85.3932
Bay Minette,AL,30.88296,-87.77305
Bayou La Batre,AL,30.40352,-88.24852
Bear Creek,AL,34.27482,-87.70058
Berry,AL,33.65983,-87.60001
Bessemer,AL,33.40178,-86.95444
Bibb County,AL,32.99864,-87.12644
Birmingham,AL,33.52066,-86.80249
Blount County,AL,33.98087,-86.56737
Blountsville,AL,34.08149,-86.5911
Blue Ridge,AL,32.49264,-86.19052
Boaz,AL,34.20065,-86.16637
Brent,AL,32.93735,-87.16472
Brewton,AL,31.10518,-87.07219
Bridgeport,AL,34.94758,-85.71442
Brighton,AL,33.43428,-86.94721
Brook Highland,AL,33.43566,-86.67388
Brookside,AL,33.63788,-86.91666
Brookwood,AL,33.25567,-87.32083
Brundidge,AL,31.72016,-85.81606
Bullock County,AL,32.10055,-85.7157
Butler,AL,32.08959,-88.22197
Butler County,AL,31.75243,-86.68029
Bynum,AL,33.61316,-85.96108
Cahaba Heights,AL,33.464,-86.73193
Calera,AL,33.1029,-86.7536
Calhoun County,AL,33.77143,-85.82603
Camden,AL,31.99098,-87.29055
Carbon Hill,AL,33.89177,-87.52612
Carlisle-Rockledge,AL,34.11445,-86.12407
Carrollton,AL,33.26169,-88.09503
Cedar Bluff,AL,34.22009,-85.60774
Center Point,AL,33.64566,-86.6836
Centre,AL,34.15204,-85.67885
Centreville,AL,32.9462,-87.11669
Chalkville,AL,33.65316,-86.64777
Chambers County,AL,32.91437,-85.39204
Chatom,AL,31.46517,-88.25446
Chelsea,AL,33.34011,-86.63026
Cherokee,AL,34.75703,-87.97281
Cherokee County,AL,34.17596,-85.60379
Chickasaw,AL,30.7638,-88.07472
Childersburg,AL,33.27817,-86.35498
Chilton County,AL,32.84785,-86.71881
Choccolocco,AL,33.65927,-85.70357
Choctaw County,AL,32.01961,-88.2632
Citronelle,AL,31.09073,-88.22806
Clanton,AL,32.83874,-86.62943
Clarke County,AL,31.67666,-87.83081
Clay,AL,33.7026,-86.59971
Clay County,AL,33.26909,-85.86055
Clayton,AL,31.87822,-85.44966
Cleburne County,AL,33.67456,-85.51877
Cleveland,AL,33.99093,-86.57749
Clio,AL,31.70878,-85.6105
Coaling,AL,33.15901,-87.34083
Coffee County,AL,31.40263,-85.98821
Colbert County,AL,34.70043,-87.80498
Collinsville,AL,34.26398,-85.86053
Columbiana,AL,33.17817,-86.60721
Concord,AL,33.46761,-87.03111
Conecuh County,AL,31.42927,-86.99368
Coosa County,AL,32.93623,-86.24766
Coosada,AL,32.49791,-86.33136
Cordova,AL,33.75983,-87.18333
Cottonwood,AL,31.04879,-85.30493
Covington County,AL,31.24849,-86.45125
Cowarts,AL,31.20018,-85.30465
Crenshaw County,AL,31.73149,-86.31355
Creola,AL,30.89185,-88.03972
Crossville,AL,34.28759,-85.99414
Cullman,AL,34.17482,-86.84361
Cullman County,AL,34.13194,-86.86762
Dadeville,AL,32.83124,-85.76357
Dale County,AL,31.43182,-85.61103
Daleville,AL,31.31017,-85.71299
Dallas County,AL,32.32597,-87.10648
Danville,AL,34.41454,-87.08751
Daphne,AL,30.60353,-87.9036
Dauphin Island,AL,30.25548,-88.10972
Deatsville,AL,32.60819,-86.39581
Decatur,AL,34.60593,-86.98334
DeKalb County,AL,34.45977,-85.80414
Demopolis,AL,32.51764,-87.8364
Dixiana,AL,33.74021,-86.64938
Dora,AL,33.72872,-87.09028
Dothan,AL,31.22323,-85.39049
Double Springs,AL,34.14637,-87.40247
East Brewton,AL,31.09323,-87.06275
East Florence,AL,34.80953,-87.64947
Eclectic,AL,32.63541,-86.03441
Elba,AL,31.41461,-86.06772
Elberta,AL,30.41436,-87.59776
Elmore,AL,32.53874,-86.31497
Elmore County,AL,32.59665,-86.14915
Emerald Mountain,AL,32.44793,-86.09429
Enterprise,AL,31.31517,-85.85522
Escambia County,AL,31.12612,-87.16162
Etowah County,AL,34.04525,-86.03476
Eufaula,AL,31.89127,-85.14549
Eutaw,AL,32.84059,-87.88762
Evergreen,AL,31.4335,-86.95692
Fairfield,AL,33.48594,-86.91194
Fairhope,AL,30.52297,-87.90333
Falkville,AL,34.36843,-86.90862
Fayette,AL,33.68455,-87.83085
Fayette County,AL,33.72121,-87.73886
Fayetteville,AL,33.14567,-86.40581
Flint City,AL,34.52315,-86.97029
Flomaton,AL,31.00018,-87.26081
Florala,AL,31.00518,-86.328
Florence,AL,34.79981,-87.67725
Foley,AL,30.40659,-87.6836
Forestdale,AL,33.57011,-86.89638
Fort Deposit,AL,31.98459,-86.57859
Fort Payne,AL,34.44425,-85.71969
Fort Rucker,AL,31.34282,-85.71538
Franklin County,AL,34.44167,-87.84381
Frisco City,AL,31.4335,-87.40138
Fultondale,AL,33.60483,-86.79388
Fyffe,AL,34.44676,-85.90414
Gadsden,AL,34.01434,-86.00639
Gardendale,AL,33.6601,-86.81277
Geneva,AL,31.03296,-85.86382
Geneva County,AL,31.09502,-85.83898
Georgiana,AL,31.6371,-86.74192
Glencoe,AL,33.95704,-85.93247
Good Hope,AL,34.11593,-86.86361
Goodwater,AL,33.06567,-86.0533
Gordo,AL,33.32012,-87.9028
Grand Bay,AL,30.47631,-88.34223
Grayson Valley,AL,33.64816,-86.63943
Graysville,AL,33.62066,-86.97138
Greene County,AL,32.85314,-87.95223
Greensboro,AL,32.70415,-87.5955
Greenville,AL,31.8296,-86.61775
Grove Hill,AL,31.70877,-87.77722
Guin,AL,33.96566,-87.91475
Gulf Shores,AL,30.24604,-87.70082
Guntersville,AL,34.35823,-86.29446
Hackleburg,AL,34.27732,-87.82864
Hale County,AL,32.76266,-87.62912
Haleyville,AL,34.22649,-87.62141
Hamilton,AL,34.14232,-87.98864
Hanceville,AL,34.06065,-86.7675
Harpersville,AL,33.344,-86.43804
Hartford,AL,31.1024,-85.69688
Hartselle,AL,34.44343,-86.93528
Harvest,AL,34.85564,-86.75083
Hayden,AL,33.8926,-86.75777
Hayneville,AL,32.18403,-86.58025
Hazel Green,AL,34.93231,-86.57194
Headland,AL,31.35128,-85.34216
Heflin,AL,33.64899,-85.58746
Helena,AL,33.29622,-86.8436
Henagar,AL,34.63508,-85.76719
Henry County,AL,31.51469,-85.24141
Highland Lakes,AL,33.39838,-86.6513
Hokes Bluff,AL,33.99815,-85.86636
Holt,AL,33.23401,-87.48445
Holtville,AL,32.63624,-86.32664
Homewood,AL,33.47177,-86.80082
Hoover,AL,33.40539,-86.81138
Houston County,AL,31.15318,-85.30252
Hueytown,AL,33.45122,-86.99666
Huguley,AL,32.83457,-85.22966
Huntsville,AL,34.7304,-86.58594
Indian Springs Village,AL,33.35539,-86.75443
Inverness,AL,32.01488,-85.74606
Irondale,AL,33.53816,-86.70721
Jackson,AL,31.50905,-87.89444
Jackson County,AL,34.77941,-85.9993
Jacksonville,AL,33.81382,-85.7613
Jasper,AL,33.83122,-87.27751
Jefferson County,AL,33.55431,-86.89649
Jemison,AL,32.95985,-86.74665
Kimberly,AL,33.77344,-86.81388
Kinsey,AL,31.29906,-85.34438
Ladonia,AL,32.4682,-85.0791
Lafayette,AL,32.89985,-85.40106
Lake Purdy,AL,33.43011,-86.68054
Lake View,AL,33.28067,-87.1375
Lamar County,AL,33.77921,-88.0969
Lanett,AL,32.86874,-85.1905
Lauderdale County,AL,34.90137,-87.654
Lawrence County,AL,34.52165,-87.31104
Lee County,AL,32.60114,-85.35556
Leeds,AL,33.54816,-86.54443
Leesburg,AL,34.17982,-85.76136
Level Plains,AL,31.29962,-85.77799
Limestone County,AL,34.81008,-86.98137
Lincoln,AL,33.61316,-86.11831
Linden,AL,32.30625,-87.79807
Lineville,AL,33.31067,-85.75441
Lipscomb,AL,33.42566,-86.92666
Livingston,AL,32.5843,-88.18725
Locust Fork,AL,33.9076,-86.61527
Lowndes County,AL,32.15475,-86.65011
Loxley,AL,30.61825,-87.75305
Luverne,AL,31.71655,-86.26385
Macon County,AL,32.38597,-85.69267
Madison,AL,34.69926,-86.74833
Madison County,AL,34.76309,-86.55021
Malvern,AL,31.13934,-85.5191
Marbury,AL,32.70124,-86.47109
Marengo County,AL,32.24761,-87.78952
Margaret,AL,33.68621,-86.47498
Marion,AL,32.63235,-87.31917
Marion County,AL,34.13655,-87.88714
Marshall County,AL,34.36696,-86.30664
Meadowbrook,AL,33.40205,-86.69665
Meridianville,AL,34.85148,-86.57222
Midfield,AL,33.4615,-86.90888
Midland City,AL,31.31906,-85.49382
Mignon,AL,33.18345,-86.26109
Millbrook,AL,32.47986,-86.36192
Minor,AL,33.53733,-86.94055
Mobile,AL,30.69436,-88.04305
Mobile County,AL,30.68515,-88.19753
Monroe County,AL,31.57084,-87.36543
Monroeville,AL,31.52794,-87.32471
Montevallo,AL,33.10067,-86.86416
Montgomery,AL,32.36681,-86.29997
Montgomery County,AL,32.22026,-86.20761
Moody,AL,33.59094,-86.49082
Moores Mill,AL,34.84398,-86.51832
Morgan County,AL,34.45347,-86.85293
Morris,AL,33.74816,-86.8086
Moulton,AL,34.48121,-87.29335
Moundville,AL,32.99762,-87.63001
Mount Olive,AL,33.67094,-86.8561
Mount Vernon,AL,31.08518,-88.01333
Mountain Brook,AL,33.50094,-86.75221
Munford,AL,33.52983,-85.9508
Muscle Shoals,AL,34.74481,-87.66753
New Brockton,AL,31.38572,-85.92939
New Hope,AL,34.53712,-86.39426
New Market,AL,34.91003,-86.42779
Newton,AL,31.33517,-85.60521
North Bibb,AL,33.20401,-87.15305
Northport,AL,33.22901,-87.57723
Odenville,AL,33.67732,-86.39665
Ohatchee,AL,33.78343,-86.00247
Oneonta,AL,33.94815,-86.47276
Opelika,AL,32.64541,-85.37828
Opp,AL,31.28267,-86.25551
Orange Beach,AL,30.29437,-87.57359
Owens Cross Roads,AL,34.58815,-86.45888
Oxford,AL,33.61427,-85.83496
Ozark,AL,31.45906,-85.64049
Pelham,AL,33.28567,-86.80999
Pell City,AL,33.58621,-86.28609
Perry County,AL,32.63847,-87.2944
Phenix City,AL,32.47098,-85.00077
Phil Campbell,AL,34.35093,-87.70642
Pickens County,AL,33.28088,-88.08869
Piedmont,AL,33.92455,-85.61135
Pike County,AL,31.80272,-85.94092
Pike Road,AL,32.28431,-86.10302
Pine Level,AL,32.58374,-86.46553
Pinson,AL,33.68899,-86.68332
Pleasant Grove,AL,33.49094,-86.97027
Point Clear,AL,30.47408,-87.91916
Prattville,AL,32.46402,-86.4597
Priceville,AL,34.52509,-86.89473
Prichard,AL,30.7388,-88.07889
Ragland,AL,33.74454,-86.15581
Rainbow City,AL,33.95482,-86.04192
Rainsville,AL,34.49425,-85.84775
Randolph County,AL,33.29379,-85.45907
Red Bay,AL,34.43982,-88.14087
Redstone Arsenal,AL,34.68387,-86.64764
Reform,AL,33.37845,-88.0153
Rehobeth,AL,31.12296,-85.45271
Riverside,AL,33.60621,-86.20442
Roanoke,AL,33.15123,-85.37217
Robertsdale,AL,30.5538,-87.71193
Rock Creek,AL,33.47705,-87.08027
Rockford,AL,32.88957,-86.21969
Rogersville,AL,34.82578,-87.29676
Russell County,AL,32.28838,-85.18496
Russellville,AL,34.50787,-87.72864
Saint Clair County,AL,33.7157,-86.31469
Saks,AL,33.69871,-85.83969
Samson,AL,31.11295,-86.04605
Saraland,AL,30.82074,-88.07056
Sardis City,AL,34.17426,-86.12275
Satsuma,AL,30.85324,-88.05611
Scottsboro,AL,34.67231,-86.03415
Selma,AL,32.40736,-87.0211
Selmont-West Selmont,AL,32.37843,-87.0074
Semmes,AL,30.77824,-88.25917
Sheffield,AL,34.76509,-87.69864
Shelby,AL,33.1104,-86.58415
Shelby County,AL,33.26428,-86.66065
Shoal Creek,AL,33.43076,-86.61092
Slocomb,AL,31.10823,-85.59438
Smiths Station,AL,32.54014,-85.09855
Smoke Rise,AL,33.89177,-86.82027
Southside,AL,33.92454,-86.02247
Spanish Fort,AL,30.67491,-87.91527
Springville,AL,33.77505,-86.47191
Steele,AL,33.93982,-86.20164
Stevenson,AL,34.86869,-85.83942
Stewartville,AL,33.07929,-86.24442
Sulligent,AL,33.90177,-88.13448
Sumiton,AL,33.75566,-87.05
Summerdale,AL,30.4877,-87.69971
Sumter County,AL,32.59101,-88.19879
Sylacauga,AL,33.17317,-86.25164
Sylvan Springs,AL,33.51566,-87.01499
Sylvania,AL,34.56231,-85.81247
Talladega,AL,33.43594,-86.1058
Talladega County,AL,33.38006,-86.16591
Tallapoosa County,AL,32.8624,-85.7975
Tallassee,AL,32.53597,-85.89329
Tarrant,AL,33.58344,-86.77277
Taylor,AL,31.1649,-85.46827
Theodore,AL,30.54769,-88.17528
Thomasville,AL,31.91349,-87.73584
Thorsby,AL,32.91568,-86.71582
Tillmans Corner,AL,30.59019,-88.17084
Town Creek,AL,34.6812,-87.40613
Trinity,AL,34.60676,-87.08835
Troy,AL,31.80877,-85.96995
Trussville,AL,33.61983,-86.60888
Tuscaloosa,AL,33.20984,-87.56917
Tuscaloosa County,AL,33.28955,-87.52503
Tuscumbia,AL,34.7312,-87.70253
Tuskegee,AL,32.42415,-85.69096
Underwood-Petersville,AL,34.87695,-87.69717
Union Springs,AL,32.14432,-85.71495
Uniontown,AL,32.44958,-87.51417
Valley,AL,32.81874,-85.17939
Valley Grande,AL,32.50902,-86.98749
Vance,AL,33.17428,-87.23361
Vandiver,AL,33.47066,-86.51332
Vernon,AL,33.75705,-88.10892
Vestavia Hills,AL,33.44872,-86.78777
Vincent,AL,33.38455,-86.41192
Walker County,AL,33.80333,-87.29736
Warrior,AL,33.81427,-86.80944
Washington County,AL,31.4076,-88.20788
Weaver,AL,33.75205,-85.81135
Webb,AL,31.26045,-85.27327
Wedowee,AL,33.309,-85.48467
West Blocton,AL,33.11817,-87.125
West End-Cobb Town,AL,33.6525,-85.8742
Westover,AL,33.34955,-86.53582
Wetumpka,AL,32.54374,-86.21191
Whitesboro,AL,34.16343,-86.06942
Wilcox County,AL,31.98924,-87.3082
Wilsonville,AL,33.23428,-86.48359
Winfield,AL,33.92899,-87.81725
Winston County,AL,34.14923,-87.37368
Woodstock,AL,33.20678,-87.15
York,AL,32.48625,-88.29642
