name,state_code,latitude,longitude
Abington,MA,42.10482,-70.94532
Acton,MA,42.48509,-71.43284
Acushnet,MA,41.68066,-70.90782
Acushnet Center,MA,41.68508,-70.90642
Adams,MA,42.62425,-73.1176
Agawam,MA,42.06954,-72.61481
Amesbury,MA,42.85842,-70.93005
Amherst,MA,42.36723,-72.51852
Amherst Center,MA,42.37537,-72.51925
Andover,MA,42.65843,-71.137
Arlington,MA,42.41537,-71.15644
Ashburnham,MA,42.6362,-71.90785
Ashby,MA,42.67787,-71.82035
Ashfield,MA,42.52647,-72.78843
Ashland,MA,42.26121,-71.4634
Assonet,MA,41.79594,-71.06782
Athol,MA,42.59592,-72.22675
Attleboro,MA,41.94454,-71.28561
Auburn,MA,42.19454,-71.83563
Avon,MA,42.13066,-71.04116
Ayer,MA,42.5612,-71.58979
Baldwinville,MA,42.60842,-72.07591
Barnstable,MA,41.70011,-70.29947
Barnstable County,MA,41.68419,-70.27405
Barre,MA,42.42287,-72.10508
Becket,MA,42.33203,-73.08288
Bedford,MA,42.49065,-71.27617
Belchertown,MA,42.27704,-72.40092
Bellingham,MA,42.08676,-71.47451
Belmont,MA,42.39593,-71.17867
Berkley,MA,41.84593,-71.08282
Berkshire County,MA,42.37067,-73.2064
Berlin,MA,42.3812,-71.63701
Bernardston,MA,42.67092,-72.54953
Beverly,MA,42.55843,-70.88005
Beverly Cove,MA,42.55343,-70.85366
Billerica,MA,42.55843,-71.26895
Blackstone,MA,42.01788,-71.54117
Bliss Corner,MA,41.61177,-70.93837
Bolton,MA,42.43343,-71.60784
Bondsville,MA,42.21259,-72.34536
Boston,MA,42.35843,-71.05977
Bourne,MA,41.74122,-70.59892
Boxborough,MA,42.49084,-71.52851
Boxford,MA,42.6612,-70.99672
Boylston,MA,42.39176,-71.70368
Braintree,MA,42.20384,-71.00215
Brewster,MA,41.76011,-70.0828
Bridgewater,MA,41.99038,-70.97504
Brimfield,MA,42.12287,-72.20091
Bristol County,MA,41.75709,-71.08852
Brockton,MA,42.08343,-71.01838
Brookline,MA,42.33176,-71.12116
Buckland,MA,42.59231,-72.79176
Burlington,MA,42.50482,-71.19561
Buzzards Bay,MA,41.74538,-70.61809
Cambridge,MA,42.3751,-71.10561
Canton,MA,42.15843,-71.14477
Carlisle,MA,42.52926,-71.3495
Carver,MA,41.88344,-70.76254
Centerville,MA,41.64872,-70.34808
Charlemont,MA,42.62786,-72.86982
Charlton,MA,42.13565,-71.97007
Chatham,MA,41.68206,-69.95974
Chelmsford,MA,42.59981,-71.36728
Chelsea,MA,42.39176,-71.03283
Chesterfield,MA,42.39175,-72.83982
Chicopee,MA,42.1487,-72.60787
Clinton,MA,42.41676,-71.68285
Cochituate,MA,42.32093,-71.36423
Cohasset,MA,42.24177,-70.80365
Colrain,MA,42.67314,-72.69676
Concord,MA,42.46037,-71.34895
Conway,MA,42.50981,-72.69953
Cordaville,MA,42.26898,-71.52395
Cotuit,MA,41.61678,-70.43697
Dalton,MA,42.4737,-73.16621
Danvers,MA,42.57509,-70.93005
Dartmouth,MA,41.5941918,-71.1104352
Dedham,MA,42.24177,-71.16616
Dennis,MA,41.73539,-70.19391
Dennis Port,MA,41.65845,-70.12863
Devens,MA,42.5447,-71.61318
Dighton,MA,41.81399,-71.12032
Douglas,MA,42.05426,-71.73951
Dover,MA,42.24593,-71.28283
Dracut,MA,42.67037,-71.30201
Dudley,MA,42.0451,-71.93007
Dukes County,MA,41.38877,-70.69877
Dunstable,MA,42.67509,-71.48284
Duxbury,MA,42.04177,-70.67226
East Bridgewater,MA,42.03343,-70.95921
East Brookfield,MA,42.22787,-72.04674
East Dennis,MA,41.74261,-70.16196
East Douglas,MA,42.07232,-71.7134
East Falmouth,MA,41.57844,-70.55864
East Harwich,MA,41.70011,-70.02724
East Longmeadow,MA,42.06454,-72.51259
East Pepperell,MA,42.66537,-71.57312
East Sandwich,MA,41.74177,-70.45169
Eastham,MA,41.83011,-69.97391
Easthampton,MA,42.26676,-72.66898
Easton,MA,42.02454,-71.12866
Edgartown,MA,41.38901,-70.51336
Erving,MA,42.60009,-72.39814
Essex,MA,42.63204,-70.78283
Essex County,MA,42.63887,-70.86792
Everett,MA,42.40843,-71.05366
Fairhaven,MA,41.6376,-70.90365
Fall River,MA,41.70149,-71.15505
Falmouth,MA,41.5515,-70.61475
Fiskdale,MA,42.11621,-72.11341
Fitchburg,MA,42.58342,-71.8023
Forestdale,MA,41.69177,-70.49947
Foxborough,MA,42.06538,-71.24783
Framingham,MA,42.27926,-71.41617
Framingham Center,MA,42.29732,-71.43701
Franklin,MA,42.08343,-71.39673
Franklin County,MA,42.58312,-72.59187
Freetown,MA,41.76677,-71.03282
Gardner,MA,42.57509,-71.99813
Gill,MA,42.64036,-72.49953
Gloucester,MA,42.61405,-70.66313
Grafton,MA,42.20704,-71.68562
Granby,MA,42.25648,-72.5162
Granville,MA,42.06676,-72.86149
Great Barrington,MA,42.19592,-73.36206
Green Harbor-Cedar Crest,MA,42.07495,-70.65843
Greenfield,MA,42.58759,-72.59953
Groton,MA,42.6112,-71.57451
Groveland,MA,42.76037,-71.03145
Hadley,MA,42.34176,-72.58842
Halifax,MA,41.99121,-70.86199
Hamilton Worcester,MA,42.2562,-71.76757
Hampden,MA,42.06398,-72.41342
Hampden County,MA,42.13511,-72.63162
Hampshire County,MA,42.34014,-72.66377
Hanover,MA,42.11316,-70.81199
Hanson,MA,42.0751,-70.88004
Hardwick,MA,42.35009,-72.19952
Harvard,MA,42.50009,-71.58284
Harwich,MA,41.68622,-70.07585
Harwich Center,MA,41.69235,-70.06938
Harwich Port,MA,41.66678,-70.07863
Hatfield,MA,42.37092,-72.59814
Haverhill,MA,42.7762,-71.07728
Head of Westport,MA,41.62094,-71.06199
Hingham,MA,42.24177,-70.88977
Hinsdale,MA,42.4387,-73.12538
Holbrook,MA,42.1551,-71.00866
Holden,MA,42.35176,-71.86341
Holland,MA,42.06398,-72.1573
Holliston,MA,42.2001,-71.4245
Holyoke,MA,42.20426,-72.6162
Hopedale,MA,42.13065,-71.54117
Hopkinton,MA,42.22871,-71.52256
Housatonic,MA,42.25425,-73.36622
Hubbardston,MA,42.4737,-72.00619
Hudson,MA,42.39176,-71.56618
Hull,MA,42.30204,-70.90782
Hyannis,MA,41.65289,-70.2828
Ipswich,MA,42.67926,-70.84116
Jamaica Plain,MA,42.30982,-71.12033
Kingston,MA,41.99455,-70.72448
Lancaster,MA,42.45565,-71.67312
Lanesborough,MA,42.51731,-73.22816
Lawrence,MA,42.70704,-71.16311
Lee,MA,42.30425,-73.24816
Leicester,MA,42.24593,-71.90868
Lenox,MA,42.35648,-73.28483
Leominster,MA,42.52509,-71.75979
Leverett,MA,42.45203,-72.50148
Lexington,MA,42.44732,-71.2245
Lincoln,MA,42.42593,-71.30395
Littleton Common,MA,42.54593,-71.47451
Longmeadow,MA,42.0501,-72.58287
Lowell,MA,42.63342,-71.31617
Ludlow,MA,42.16009,-72.47592
Lunenburg,MA,42.59453,-71.72452
Lynn,MA,42.46676,-70.94949
Lynnfield,MA,42.53898,-71.04811
Malden,MA,42.4251,-71.06616
Manchester-by-the-Sea,MA,42.57787,-70.76894
Mansfield,MA,42.03343,-71.21894
Mansfield Center,MA,42.02262,-71.21808
Marblehead,MA,42.5001,-70.85783
Marion,MA,41.7001,-70.76281
Marion Center,MA,41.70424,-70.76286
Marlborough,MA,42.34593,-71.55229
Marshfield,MA,42.09177,-70.70559
Marshfield Hills,MA,42.14594,-70.73976
Marstons Mills,MA,41.65622,-70.41614
Mashpee,MA,41.64844,-70.48114
Mattapoisett,MA,41.65844,-70.81615
Mattapoisett Center,MA,41.66595,-70.8072
Maynard,MA,42.43343,-71.44951
Medfield,MA,42.1876,-71.30645
Medford,MA,42.41843,-71.10616
Medway,MA,42.14176,-71.39673
Melrose,MA,42.45843,-71.06616
Mendon,MA,42.10565,-71.55229
Merrimac,MA,42.83065,-71.00228
Methuen,MA,42.7262,-71.19089
Middleborough,MA,41.89316,-70.91115
Middleborough Center,MA,41.8946,-70.92618
Middlesex County,MA,42.48555,-71.39184
Middleton,MA,42.59509,-71.01616
Milford,MA,42.13982,-71.51617
Millbury,MA,42.19398,-71.76007
Millers Falls,MA,42.58203,-72.49259
Millis,MA,42.1676,-71.35784
Millis-Clicquot,MA,42.1648,-71.35442
Millville,MA,42.02788,-71.5809
Milton,MA,42.24954,-71.06616
Monson,MA,42.10426,-72.31897
Monson Center,MA,42.09898,-72.30481
Montague,MA,42.53564,-72.53509
Monument Beach,MA,41.71955,-70.61198
Nahant,MA,42.42649,-70.91894
Nantucket,MA,41.28346,-70.09946
Nantucket County,MA,41.26955,-70.02171
Natick,MA,42.28343,-71.3495
Needham,MA,42.28343,-71.23283
New Bedford,MA,41.63526,-70.92701
New Marlborough,MA,42.12287,-73.22872
Newburyport,MA,42.81259,-70.87728
Newton,MA,42.33704,-71.20922
Norfolk,MA,42.11954,-71.32506
Norfolk County,MA,42.17097,-71.18381
North Adams,MA,42.70092,-73.10871
North Amherst,MA,42.41037,-72.53092
North Andover,MA,42.6987,-71.13506
North Attleborough Center,MA,41.97263,-71.32474
North Brookfield,MA,42.26676,-72.08285
North Chicopee,MA,42.18343,-72.59953
North Eastham,MA,41.86511,-69.99113
North Falmouth,MA,41.64594,-70.61836
North Lakeville,MA,41.8576,-70.94226
North Pembroke,MA,42.09316,-70.79254
North Plymouth,MA,41.97094,-70.68281
North Reading,MA,42.57509,-71.07867
North Scituate,MA,42.21899,-70.7856
North Seekonk,MA,41.88927,-71.33005
North Westport,MA,41.66038,-71.08838
Northampton,MA,42.32509,-72.6412
Northborough,MA,42.31954,-71.64118
Northbridge,MA,42.15148,-71.64951
Northfield,MA,42.69592,-72.45287
Northwest Harwich,MA,41.69029,-70.1025
Norton,MA,41.96677,-71.18699
Norton Center,MA,41.97254,-71.18535
Norwell,MA,42.16177,-70.79393
Norwood,MA,42.19454,-71.1995
Oak Bluffs,MA,41.45428,-70.56197
Oakham,MA,42.35287,-72.04535
Ocean Bluff-Brant Rock,MA,42.10234,-70.65736
Ocean Grove,MA,41.72927,-71.20921
Onset,MA,41.74177,-70.65781
Orange,MA,42.59036,-72.30981
Orleans,MA,41.78983,-69.98974
Osterville,MA,41.62844,-70.38697
Otis,MA,42.19315,-73.09177
Oxford,MA,42.11676,-71.86479
Palmer,MA,42.15843,-72.32869
Paxton,MA,42.3112,-71.92813
Peabody,MA,42.52787,-70.92866
Pelham,MA,42.39315,-72.4037
Pepperell,MA,42.66592,-71.5884
Phillipston,MA,42.5487,-72.13286
Pinehurst,MA,42.52926,-71.22811
Pittsfield,MA,42.45008,-73.24538
Plainville,MA,42.00427,-71.33283
Plymouth,MA,41.95844,-70.66726
Plymouth County,MA,41.98743,-70.73707
Plympton,MA,41.95288,-70.81448
Pocasset,MA,41.68622,-70.61614
Princeton,MA,42.4487,-71.8773
Provincetown,MA,42.05295,-70.1864
Quincy,MA,42.25288,-71.00227
Randolph,MA,42.1626,-71.04116
Raynham,MA,41.94871,-71.0731
Raynham Center,MA,41.92371,-71.05227
Reading,MA,42.52565,-71.09533
Rehoboth,MA,41.84038,-71.24949
Revere,MA,42.40843,-71.01199
Richmond,MA,42.37314,-73.36761
Rochester,MA,41.73177,-70.82004
Rockland,MA,42.13066,-70.91616
Rockport,MA,42.65565,-70.62032
Rowley,MA,42.71676,-70.87866
Royalston,MA,42.67759,-72.18786
Rutland,MA,42.36954,-71.94813
Sagamore,MA,41.77011,-70.52836
Salem,MA,42.51954,-70.89672
Salisbury,MA,42.84176,-70.86061
Sandwich,MA,41.759,-70.49392
Saugus,MA,42.46482,-71.01005
Scituate,MA,42.19593,-70.72587
Seekonk,MA,41.80843,-71.337
Sharon,MA,42.12371,-71.17866
Sheffield,MA,42.11037,-73.35511
Shelburne,MA,42.58981,-72.68842
Shelburne Falls,MA,42.60425,-72.73926
Sherborn,MA,42.23899,-71.36978
Shirley,MA,42.5437,-71.64951
Shrewsbury,MA,42.29593,-71.71285
Shutesbury,MA,42.45648,-72.40981
Smith Mills,MA,41.63899,-70.99115
Somerset,MA,41.76955,-71.12866
Somerville,MA,42.3876,-71.0995
South Amherst,MA,42.34037,-72.50509
South Ashburnham,MA,42.61037,-71.93897
South Boston,MA,42.33343,-71.04949
South Deerfield,MA,42.47731,-72.60787
South Dennis,MA,41.68956,-70.15641
South Duxbury,MA,42.02316,-70.68281
South Hadley,MA,42.25842,-72.57453
South Lancaster,MA,42.44454,-71.68701
South Peabody,MA,42.50982,-70.94949
South Yarmouth,MA,41.66678,-70.18474
Southampton,MA,42.22926,-72.73009
Southborough,MA,42.30565,-71.52451
Southbridge,MA,42.0751,-72.03341
Southwick,MA,42.05482,-72.77037
Spencer,MA,42.24398,-71.9923
Springfield,MA,42.10148,-72.58981
Sterling,MA,42.43759,-71.76063
Stockbridge,MA,42.28759,-73.32039
Stoneham,MA,42.4801,-71.0995
Stoughton,MA,42.1251,-71.10227
Stow,MA,42.43704,-71.50562
Sturbridge,MA,42.10843,-72.07869
Sudbury,MA,42.38343,-71.41617
Suffolk County,MA,42.3555,-71.06575
Sunderland,MA,42.24454,-71.77174
Sutton,MA,42.1501,-71.76285
Swampscott,MA,42.47093,-70.91755
Swansea,MA,41.74816,-71.18977
Taunton,MA,41.9001,-71.08977
Teaticket,MA,41.56455,-70.59586
Templeton,MA,42.55564,-72.06758
Tewksbury,MA,42.61065,-71.23422
Three Rivers,MA,42.1812,-72.36064
Topsfield,MA,42.63759,-70.9495
Townsend,MA,42.66676,-71.70507
Truro,MA,41.99344,-70.04975
Turners Falls,MA,42.60425,-72.55648
Tyngsboro,MA,42.67676,-71.42451
Upton,MA,42.17454,-71.60229
Uxbridge,MA,42.07732,-71.62951
Vineyard Haven,MA,41.45428,-70.60364
Wakefield,MA,42.50648,-71.07283
Wales,MA,42.06954,-72.2223
Walpole,MA,42.14177,-71.2495
Waltham,MA,42.37649,-71.23561
Ware,MA,42.25981,-72.2398
Wareham Center,MA,41.76677,-70.72615
Warren,MA,42.21259,-72.19119
Watertown,MA,42.37093,-71.18283
Wayland,MA,42.3626,-71.36145
Webster,MA,42.0501,-71.88007
Wellesley,MA,42.29649,-71.29256
Wellfleet,MA,41.93761,-70.0328
Wendell,MA,42.54814,-72.39675
Wenham,MA,42.60426,-70.89116
West Barnstable,MA,41.70566,-70.37447
West Boylston,MA,42.36676,-71.78563
West Bridgewater,MA,42.01899,-71.00782
West Brookfield,MA,42.23537,-72.14119
West Chatham,MA,41.68122,-69.99113
West Concord,MA,42.45843,-71.39534
West Dennis,MA,41.66456,-70.1728
West Falmouth,MA,41.60427,-70.63447
West Newbury,MA,42.80148,-70.98978
West Springfield,MA,42.10704,-72.62037
West Stockbridge,MA,42.34592,-73.36622
West Tisbury,MA,41.38122,-70.67447
West Wareham,MA,41.78983,-70.76031
West Yarmouth,MA,41.65011,-70.24113
Westborough,MA,42.26954,-71.61618
Westfield,MA,42.12509,-72.74954
Westford,MA,42.57926,-71.43784
Westhampton,MA,42.30287,-72.77454
Westminster,MA,42.54592,-71.91063
Weston,MA,42.36676,-71.30311
Westwood,MA,42.21399,-71.2245
Weweantic,MA,41.73538,-70.73198
Weymouth,MA,42.22093,-70.93977
Whately,MA,42.43981,-72.63481
White Island Shores,MA,41.8001,-70.63475
Whitinsville,MA,42.11121,-71.66618
Whitman,MA,42.08066,-70.9356
Wilbraham,MA,42.12371,-72.43147
Williamsburg,MA,42.39314,-72.73009
Williamstown,MA,42.71202,-73.20372
Wilmington,MA,42.54648,-71.17367
Winchendon,MA,42.6862,-72.04397
Winchester,MA,42.45232,-71.137
Winthrop,MA,42.3751,-70.98283
Woburn,MA,42.47926,-71.15228
Worcester,MA,42.26259,-71.80229
Worcester County,MA,42.3514,-71.90774
Wrentham,MA,42.06677,-71.32811
Yarmouth,MA,41.70567,-70.22863
Yarmouth Port,MA,41.70205,-70.24947
