name,state_code,latitude,longitude
Acalanes Ridge,CA,37.90472,-122.07857
Acton,CA,34.46999,-118.19674
Adelanto,CA,34.58277,-117.40922
Agoura,CA,34.14306,-118.73787
Agoura Hills,CA,34.13639,-118.77453
Agua Dulce,CA,34.49638,-118.32563
Aguanga,CA,33.44281,-116.86502
Ahwahnee,CA,37.3655,-119.72627
Alameda,CA,37.76521,-122.24164
Alameda County,CA,37.65055,-121.91789
Alamo,CA,37.8502,-122.03218
Albany,CA,37.88687,-122.29775
Alhambra,CA,34.09529,-118.12701
Aliso Viejo,CA,33.56504,-117.72712
Allendale,CA,38.44463,-121.94302
Alondra Park,CA,33.88946,-118.33091
Alpaugh,CA,35.88773,-119.48734
Alpine,CA,32.83505,-116.76641
Alpine County,CA,38.59725,-119.82065
Alta Sierra,CA,35.73126,-118.5539
Altadena,CA,34.18973,-118.13118
Alturas,CA,41.48714,-120.54349
Alum Rock,CA,37.36605,-121.82718
Amador County,CA,38.44639,-120.65112
American Canyon,CA,38.17492,-122.2608
Amesti,CA,36.96356,-121.77912
Anaheim,CA,33.83529,-117.9145
Anderson,CA,40.44821,-122.29778
Angels Camp,CA,38.06826,-120.53965
Angwin,CA,38.57574,-122.44998
Antelope,CA,38.70824,-121.32995
Antioch,CA,38.00492,-121.80579
Anza,CA,33.55503,-116.67363
Apple Valley,CA,34.50083,-117.18588
Aptos,CA,36.97717,-121.8994
Aptos Hills-Larkin Valley,CA,36.96064,-121.83404
Arbuckle,CA,39.0174,-122.05775
Arcadia,CA,34.13973,-118.03534
Arcata,CA,40.86652,-124.08284
Arden-Arcade,CA,38.6025,-121.37854
Armona,CA,36.31578,-119.70846
Arnold,CA,38.25547,-120.35103
Aromas,CA,36.88856,-121.643
Arroyo Grande,CA,35.11859,-120.59073
Artesia,CA,33.86585,-118.08312
Arvin,CA,35.20913,-118.82843
Ashland,CA,37.69465,-122.11385
Atascadero,CA,35.48942,-120.67073
Atherton,CA,37.46133,-122.19774
Atwater,CA,37.34772,-120.60908
Auberry,CA,37.08078,-119.48541
Auburn,CA,38.89657,-121.07689
Auburn Lake Trails,CA,38.91434,-120.95244
August,CA,37.97881,-121.26217
Avalon,CA,33.34281,-118.32785
Avenal,CA,36.00412,-120.12903
Avila Beach,CA,35.17998,-120.73184
Avocado Heights,CA,34.03612,-117.99118
Azusa,CA,34.13362,-117.90756
Bakersfield,CA,35.37329,-119.01871
Baldwin Park,CA,34.08529,-117.9609
Banning,CA,33.92557,-116.87641
Barstow,CA,34.89859,-117.02282
Barstow Heights,CA,34.86971,-117.05615
Bay Point,CA,38.02909,-121.96163
Bayside,CA,40.84235,-124.06367
Bayview,CA,40.77263,-124.18395
Beale Air Force Base,CA,39.10917,-121.35444
Bear Valley Springs,CA,35.15913,-118.62842
Beaumont,CA,33.92946,-116.97725
Bell,CA,33.97751,-118.18702
Bell Gardens,CA,33.96529,-118.15146
Bella Vista,CA,40.64071,-122.2325
Bellflower,CA,33.88168,-118.11701
Belmont,CA,37.52021,-122.2758
Belvedere,CA,37.8727,-122.46442
Ben Lomond,CA,37.08911,-122.08635
Benicia,CA,38.04937,-122.15858
Berkeley,CA,37.87159,-122.27275
Bermuda Dunes,CA,33.7428,-116.28918
Berry Creek,CA,39.64516,-121.4033
Bertsch-Oceanview,CA,41.7525,-124.15875
Bethel Island,CA,38.01492,-121.64051
Beverly Hills,CA,34.07362,-118.40036
Big Bear City,CA,34.26112,-116.84503
Big Bear Lake,CA,34.2439,-116.91142
Big Pine,CA,37.16493,-118.28955
Big River,CA,34.14002,-114.36134
Biggs,CA,39.41239,-121.71275
Biola,CA,36.80217,-120.01627
Bishop,CA,37.36354,-118.39511
Black Point-Green Point,CA,38.11547,-122.51318
Blackhawk,CA,37.82076,-121.90774
Bloomington,CA,34.07029,-117.39588
Blue Lake,CA,40.88291,-123.98395
Blythe,CA,33.6103,-114.59635
Bodega Bay,CA,38.33325,-123.04806
Bodfish,CA,35.58801,-118.49203
Bolinas,CA,37.90937,-122.68637
Bonadelle Ranchos-Madera Ranchos,CA,36.98467,-119.87463
Bonita,CA,32.65783,-117.03003
Bonny Doon,CA,37.04162,-122.15052
Bonsall,CA,33.28892,-117.22559
Boonville,CA,39.00907,-123.36612
Boron,CA,34.99942,-117.64978
Boronda,CA,36.69885,-121.67495
Borrego Springs,CA,33.25587,-116.37501
Bostonia,CA,32.80755,-116.93642
Boulder Creek,CA,37.12606,-122.12219
Boyes Hot Springs,CA,38.3138,-122.48193
Boyle Heights,CA,34.0339,-118.20535
Bradbury,CA,34.14695,-117.9709
Brawley,CA,32.97866,-115.53027
Brea,CA,33.91668,-117.90006
Brentwood,CA,37.93187,-121.69579
Bret Harte,CA,37.60207,-121.00519
Bridgeport,CA,38.25575,-119.23127
Brisbane,CA,37.68077,-122.39997
Broadmoor,CA,37.6866,-122.48275
Brookdale,CA,37.10634,-122.10608
Brooktrails,CA,39.44377,-123.38529
Buckhorn,CA,38.45216,-120.52854
Buellton,CA,34.6136,-120.19265
Buena Park,CA,33.86751,-117.99812
Buena Vista,CA,37.32133,-121.91662
Burbank,CA,34.18084,-118.30897
Burlingame,CA,37.5841,-122.36608
Burney,CA,40.88238,-121.66082
Butte County,CA,39.66693,-121.60067
Buttonwillow,CA,35.40052,-119.46956
Byron,CA,37.86715,-121.63801
Bystrom,CA,37.62076,-120.98577
Cabazon,CA,33.91752,-116.78724
Calabasas,CA,34.15778,-118.63842
Calaveras County,CA,38.20461,-120.55413
Calexico,CA,32.67895,-115.49888
California City,CA,35.1258,-117.9859
Calimesa,CA,34.0039,-117.06198
Calipatria,CA,33.1256,-115.51415
Calistoga,CA,38.5788,-122.57971
Callender,CA,35.05303,-120.59628
Camarillo,CA,34.21639,-119.0376
Cambria,CA,35.56414,-121.08075
Cambrian Park,CA,37.25689,-121.93079
Cameron Park,CA,38.66879,-120.98716
Camino,CA,38.73824,-120.67493
Camp Meeker,CA,38.42519,-122.95944
Camp Pendleton North,CA,33.31465,-117.31603
Camp Pendleton South,CA,33.22844,-117.37929
Campbell,CA,37.28717,-121.94996
Campo,CA,32.60645,-116.46891
Canoga Park,CA,34.20112,-118.59814
Canyon Lake,CA,33.68502,-117.27309
Capitola,CA,36.97523,-121.95329
Carlsbad,CA,33.15809,-117.35059
Carmel Valley Village,CA,36.50605,-121.76594
Carmel-by-the-Sea,CA,36.55524,-121.92329
Carmichael,CA,38.61713,-121.32828
Carpinteria,CA,34.39888,-119.51846
Carson,CA,33.83141,-118.28202
Caruthers,CA,36.54273,-119.8332
Casa Conejo,CA,34.18362,-118.94343
Casa de Oro-Mount Helix,CA,32.76397,-116.96877
Castaic,CA,34.48888,-118.62287
Castro Valley,CA,37.6941,-122.08635
Castroville,CA,36.76579,-121.758
Cathedral City,CA,33.77974,-116.46529
Cayucos,CA,35.44275,-120.89213
Cedar Ridge,CA,38.06576,-120.27686
Central Valley (historical),CA,40.68043,-122.37112
Century City,CA,34.05557,-118.41786
Ceres,CA,37.59493,-120.95771
Cerritos,CA,33.85835,-118.06479
Challenge-Brownsville,CA,39.46447,-121.26338
Channel Islands Beach,CA,34.15806,-119.22316
Charter Oak,CA,34.10306,-117.84589
Chatsworth,CA,34.25723,-118.6012
Cherry Valley,CA,33.97252,-116.97725
Cherryland,CA,37.67938,-122.1033
Chester,CA,40.30627,-121.23191
Chico,CA,39.72849,-121.83748
China Lake Acres,CA,35.64051,-117.76395
Chinatown,CA,37.7966,-122.40858
Chino,CA,34.01223,-117.68894
Chino Hills,CA,33.9938,-117.75888
Chowchilla,CA,37.123,-120.26018
Chualar,CA,36.57052,-121.51855
Chula Vista,CA,32.64005,-117.0842
Citrus,CA,34.11501,-117.89173
Citrus Heights,CA,38.70712,-121.28106
City and County of San Francisco,CA,37.77823,-122.4425
City of Industry,CA,34.01583333,-117.95083333
Claremont,CA,34.09668,-117.71978
Clay,CA,38.33602,-121.15939
Clayton,CA,37.94103,-121.93579
Clear Lake Riviera,CA,38.95406,-122.72082
Clearlake,CA,38.95823,-122.62637
Clearlake Oaks,CA,39.02628,-122.67193
Cloverdale,CA,38.80546,-123.01722
Clovis,CA,36.82523,-119.70292
Coachella,CA,33.6803,-116.17389
Coalinga,CA,36.13968,-120.36015
Coarsegold,CA,37.26217,-119.70098
Cobb,CA,38.82213,-122.72305
Colfax,CA,39.10073,-120.95328
Collierville,CA,38.21464,-121.26884
Colma,CA,37.67688,-122.45969
Colton,CA,34.0739,-117.31365
Columbia,CA,38.03631,-120.40131
Colusa,CA,39.21433,-122.00942
Colusa County,CA,39.17757,-122.23703
Commerce,CA,34.00057,-118.15979
Compton,CA,33.89585,-118.22007
Concord,CA,37.97798,-122.03107
Contra Costa Centre,CA,37.92752,-122.05786
Contra Costa County,CA,37.92342,-121.95121
Cool,CA,38.88722,-121.01472
Copperopolis,CA,37.98104,-120.64187
Corcoran,CA,36.09801,-119.5604
Corning,CA,39.92766,-122.17916
Corona,CA,33.87529,-117.56644
Coronado,CA,32.68589,-117.18309
Corralitos,CA,36.98856,-121.80634
Corte Madera,CA,37.92548,-122.52748
Costa Mesa,CA,33.64113,-117.91867
Cotati,CA,38.32686,-122.70721
Coto De Caza,CA,33.60419,-117.58699
Cottonwood,CA,40.38571,-122.28084
Country Club,CA,37.96881,-121.34078
Covelo,CA,39.79327,-123.24922
Covina,CA,34.09001,-117.89034
Crescent City,CA,41.75595,-124.20175
Crest,CA,32.80727,-116.86808
Crestline,CA,34.24195,-117.2856
Crockett,CA,38.05242,-122.21302
Cudahy,CA,33.96057,-118.18535
Culver City,CA,34.02112,-118.39647
Cupertino,CA,37.323,-122.03218
Cutler,CA,36.52328,-119.28678
Cutten,CA,40.76985,-124.14284
Cypress,CA,33.81696,-118.03729
Daly City,CA,37.70577,-122.46192
Dana Point,CA,33.46697,-117.69811
Danville,CA,37.82159,-121.99996
Davis,CA,38.54491,-121.74052
Day Valley,CA,37.03578,-121.86246
Deer Park,CA,38.68185,-120.82327
Del Aire,CA,33.91613,-118.36952
Del Mar,CA,32.95949,-117.26531
Del Monte Forest,CA,36.58635,-121.94746
Del Norte County,CA,41.74496,-123.95781
Del Rey,CA,36.65912,-119.59374
Del Rey Oaks,CA,36.59329,-121.83495
Del Rio,CA,37.74354,-121.01188
Delano,CA,35.76884,-119.24705
Delhi,CA,37.43216,-120.77854
Denair,CA,37.52632,-120.79687
Descanso,CA,32.85283,-116.61585
Desert Edge,CA,33.92417,-116.44139
Desert Hot Springs,CA,33.96173,-116.50353
Desert Shores,CA,33.4042,-116.03972
Desert View Highlands,CA,34.59082,-118.15257
Diablo,CA,37.83493,-121.95801
Diamond Bar,CA,34.02862,-117.81034
Diamond Springs,CA,38.69463,-120.81494
Dinuba,CA,36.54328,-119.38707
Discovery Bay,CA,37.90854,-121.60023
Dixon,CA,38.44546,-121.8233
Dixon Lane-Meadow Creek,CA,37.38639,-118.41527
Dogtown,CA,38.21381,-121.08855
Dollar Point,CA,39.18796,-120.09991
Dos Palos,CA,36.98606,-120.62657
Downey,CA,33.94001,-118.13257
Downieville,CA,39.55934,-120.82689
Duarte,CA,34.13945,-117.97729
Dublin,CA,37.70215,-121.93579
Dunnigan,CA,38.88518,-121.96969
Dunsmuir,CA,41.20821,-122.27195
Durham,CA,39.64627,-121.79998
Earlimart,CA,35.88412,-119.27233
East Foothills,CA,37.38105,-121.81745
East Hemet,CA,33.74002,-116.93891
East La Mirada,CA,33.92446,-117.98895
East Los Angeles,CA,34.0239,-118.17202
East Oakdale,CA,37.78798,-120.80382
East Palo Alto,CA,37.46883,-122.14108
East Pasadena,CA,34.13814,-118.07384
East Porterville,CA,36.05745,-118.97566
East Quincy,CA,39.93406,-120.89801
East Rancho Dominguez,CA,33.89807,-118.19535
East Richmond Heights,CA,37.94492,-122.31358
East San Gabriel,CA,34.09168,-118.09118
East Sonora,CA,37.9777,-120.3613
Easton,CA,36.65023,-119.7907
Eastvale,CA,33.96358,-117.56418
Echo Park,CA,34.07808,-118.26066
Edwards Air Force Base,CA,34.91637,-117.93535
El Cajon,CA,32.79477,-116.96253
El Centro,CA,32.792,-115.56305
El Cerrito,CA,37.91576,-122.31164
El Cerrito Corona,CA,33.84057,-117.52283
El Dorado County,CA,38.77874,-120.52465
El Dorado Hills,CA,38.68574,-121.08217
El Granada,CA,37.50272,-122.46942
El Monte,CA,34.06862,-118.02757
El Rio,CA,34.23578,-119.16383
El Segundo,CA,33.91918,-118.41647
El Sobrante,CA,37.97715,-122.29525
El Verano,CA,38.29769,-122.49165
Eldridge,CA,38.3488,-122.51081
Elk Grove,CA,38.4088,-121.37162
Elkhorn,CA,36.8244,-121.7405
Elverta,CA,38.71379,-121.46273
Emerald Lake Hills,CA,37.46466,-122.26802
Emeryville,CA,37.83132,-122.28525
Empire,CA,37.63826,-120.90215
Encinitas,CA,33.03699,-117.29198
Encino,CA,34.15917,-118.50119
Escalon,CA,37.79781,-120.99792
Escondido,CA,33.11921,-117.08642
Esparto,CA,38.69213,-122.01719
Eucalyptus Hills,CA,32.87977,-116.94669
Eureka,CA,40.80207,-124.16367
Exeter,CA,36.29606,-119.14205
Fair Oaks,CA,38.64463,-121.27217
Fairbanks Ranch,CA,32.99393,-117.18726
Fairfax,CA,37.98715,-122.58887
Fairfield,CA,38.24936,-122.03997
Fairmead,CA,37.07633,-120.19295
Fairview,CA,37.67854,-122.0458
Fallbrook,CA,33.37642,-117.25115
Farmersville,CA,36.29773,-119.20678
Felton,CA,37.05134,-122.0733
Ferndale,CA,40.57624,-124.26394
Fetters Hot Springs-Agua Caliente,CA,38.3214,-122.48682
Fillmore,CA,34.39916,-118.91815
Firebaugh,CA,36.85884,-120.45601
Florence-Graham,CA,33.96772,-118.24438
Florin,CA,38.49602,-121.40884
Folsom,CA,38.67796,-121.17606
Fontana,CA,34.09223,-117.43505
Foothill Farms,CA,38.67877,-121.35114
Foothill Ranch,CA,33.68641,-117.66088
Ford City,CA,35.15441,-119.45623
Forest Meadows,CA,38.16851,-120.40659
Forest Ranch,CA,39.88211,-121.67275
Foresthill,CA,39.02018,-120.81799
Forestville,CA,38.47352,-122.89027
Fort Bragg,CA,39.44572,-123.80529
Fort Irwin,CA,35.26275,-116.68475
Fortuna,CA,40.59819,-124.15728
Foster City,CA,37.55855,-122.27108
Fountain Valley,CA,33.70918,-117.95367
Fowler,CA,36.63051,-119.67847
Frazier Park,CA,34.82276,-118.94482
Freedom,CA,36.93523,-121.77301
Fremont,CA,37.54827,-121.98857
French Camp,CA,37.88409,-121.27106
Fresno,CA,36.74773,-119.77237
Fresno County,CA,36.75818,-119.64932
Fruitridge Pocket,CA,38.53265,-121.45581
Fullerton,CA,33.87029,-117.92534
Galt,CA,38.25464,-121.29995
Garden Acres,CA,37.96381,-121.22939
Garden Grove,CA,33.77391,-117.94145
Gardena,CA,33.88835,-118.30896
Garnet,CA,33.90196,-116.54557
Georgetown,CA,38.90684,-120.83855
Gerber,CA,40.05627,-122.15027
Gilroy,CA,37.00578,-121.56828
Glen Avon,CA,34.01168,-117.48477
Glendale,CA,34.14251,-118.25508
Glendora,CA,34.13612,-117.86534
Glenn County,CA,39.5984,-122.39221
Gold River,CA,38.62629,-121.24662
Golden Hills,CA,35.14247,-118.49036
Goleta,CA,34.43583,-119.82764
Gonzales,CA,36.50663,-121.44438
Good Hope,CA,33.76474,-117.26698
Goshen,CA,36.35106,-119.42012
Grand Terrace,CA,34.0339,-117.31365
Granite Bay,CA,38.76323,-121.16384
Granite Hills,CA,32.80311,-116.90475
Grass Valley,CA,39.21906,-121.06106
Graton,CA,38.4363,-122.86972
Green Acres,CA,33.73808,-117.07642
Green Valley,CA,38.25297,-122.16219
Greenacres,CA,35.38329,-119.10983
Greenfield,CA,36.3208,-121.24381
Greenville,CA,40.13961,-120.95107
Gridley,CA,39.36378,-121.69358
Grover Beach,CA,35.12164,-120.62128
Guadalupe,CA,34.97164,-120.57184
Guerneville,CA,38.50186,-122.99611
Gustine,CA,37.25772,-120.99882
Hacienda Heights,CA,33.99307,-117.96868
Half Moon Bay,CA,37.46355,-122.42859
Hamilton City,CA,39.74266,-122.01359
Hanford,CA,36.32745,-119.64568
Happy Camp,CA,41.79275,-123.3808
Harbison Canyon,CA,32.82033,-116.83002
Hartley,CA,38.41713,-121.94691
Hawaiian Gardens,CA,33.8314,-118.07284
Hawthorne,CA,33.9164,-118.35257
Hayfork,CA,40.55431,-123.18308
Hayward,CA,37.66882,-122.0808
Healdsburg,CA,38.61047,-122.86916
Heber,CA,32.73089,-115.52972
Hemet,CA,33.74761,-116.97307
Herald,CA,38.29575,-121.24439
Hercules,CA,38.01714,-122.28858
Hermosa Beach,CA,33.86224,-118.39952
Hesperia,CA,34.42639,-117.30088
Hidden Hills,CA,34.16028,-118.65231
Hidden Meadows,CA,33.22531,-117.11253
Hidden Valley Lake,CA,38.80796,-122.55832
Highgrove,CA,34.01585,-117.33338
Highland,CA,34.12834,-117.20865
Highlands-Baywood Park,CA,37.52272,-122.34506
Hillsborough,CA,37.5741,-122.37942
Hilmar-Irwin,CA,37.40454,-120.85042
Hollister,CA,36.85245,-121.4016
Hollywood,CA,34.09834,-118.32674
Holtville,CA,32.81116,-115.38026
Home Garden,CA,36.30328,-119.63624
Home Gardens,CA,33.87807,-117.52088
Homeland,CA,33.74308,-117.1092
Hughson,CA,37.59688,-120.86604
Humboldt County,CA,40.70501,-123.91582
Humboldt Hill,CA,40.72596,-124.18978
Huntington Beach,CA,33.6603,-117.99923
Huntington Park,CA,33.98168,-118.22507
Huron,CA,36.20273,-120.10292
Hydesville,CA,40.54763,-124.09727
Idyllwild,CA,33.74002,-116.71891
Idyllwild-Pine Cove,CA,33.74429,-116.72587
Imperial,CA,32.84755,-115.56944
Imperial Beach,CA,32.58394,-117.11308
Imperial County,CA,33.03951,-115.36532
Indian Wells,CA,33.71791,-116.34311
Indio,CA,33.7207,-116.21677
Inglewood,CA,33.96168,-118.35313
Interlaken,CA,36.95134,-121.73384
Inverness,CA,38.10103,-122.85694
Inyo County,CA,36.51113,-117.41079
Inyokern,CA,35.6469,-117.81257
Ione,CA,38.35269,-120.93272
Irvine,CA,33.66946,-117.82311
Irwindale,CA,34.10695,-117.93534
Isla Vista,CA,34.41333,-119.86097
Ivanhoe,CA,36.38717,-119.21789
Jackson,CA,38.3488,-120.7741
Jamestown,CA,37.95326,-120.4227
Jamul,CA,32.717,-116.87613
Janesville,CA,40.29656,-120.52411
Johnstonville,CA,40.38434,-120.58745
Joshua Tree,CA,34.13473,-116.31307
Julian,CA,33.07866,-116.60196
Jurupa Valley,CA,33.99251,-117.51644
Kelseyville,CA,38.97795,-122.83944
Kennedy,CA,37.92992,-121.25272
Kensington,CA,37.91048,-122.28025
Kentfield,CA,37.95215,-122.5572
Kenwood,CA,38.4138,-122.54609
Kerman,CA,36.72356,-120.05988
Kern County,CA,35.34285,-118.7299
Kernville,CA,35.75467,-118.42536
Kettleman City,CA,36.00829,-119.9618
Keyes,CA,37.5566,-120.91549
King City,CA,36.21274,-121.12603
Kings Beach,CA,39.23768,-120.02658
Kings County,CA,36.07536,-119.8155
Kingsburg,CA,36.51384,-119.55402
Knightsen,CA,37.96881,-121.66801
Koreatown,CA,34.05779,-118.30091
La Cañada Flintridge,CA,34.19917,-118.18785
La Crescenta-Montrose,CA,34.23216,-118.23529
La Habra,CA,33.93196,-117.94617
La Habra Heights,CA,33.96085,-117.95062
La Jolla,CA,32.84727,-117.2742
La Mesa,CA,32.76783,-117.02308
La Mirada,CA,33.91724,-118.01201
La Palma,CA,33.8464,-118.04673
La Presa,CA,32.70811,-116.99725
La Puente,CA,34.02001,-117.94951
La Quinta,CA,33.66336,-116.31001
La Riviera,CA,38.56685,-121.3569
La Selva Beach,CA,36.93662,-121.86468
La Verne,CA,34.10084,-117.76784
Ladera,CA,37.39994,-122.1983
Ladera Heights,CA,33.99418,-118.37535
Ladera Ranch,CA,33.57086,-117.63561
Lafayette,CA,37.88576,-122.11802
Laguna,CA,38.42102,-121.42384
Laguna Beach,CA,33.54225,-117.78311
Laguna Hills,CA,33.61252,-117.71283
Laguna Niguel,CA,33.52253,-117.70755
Laguna Woods,CA,33.6103,-117.72533
Lagunitas-Forest Knolls,CA,38.01793,-122.69124
Lake Arrowhead,CA,34.24834,-117.18921
Lake County,CA,39.09965,-122.75318
Lake Elsinore,CA,33.66808,-117.32726
Lake Forest,CA,33.64697,-117.68922
Lake Isabella,CA,35.61801,-118.47314
Lake Los Angeles,CA,34.61249,-117.82812
Lake Nacimiento,CA,35.7283,-120.87963
Lake of the Pines,CA,39.03962,-121.05661
Lake San Marcos,CA,33.12615,-117.20837
Lake Wildwood,CA,39.23295,-121.20051
Lakeland Village,CA,33.63863,-117.34393
Lakeport,CA,39.04295,-122.91583
Lakeside,CA,32.85727,-116.92225
Lakeview,CA,33.83863,-117.11809
Lakewood,CA,33.85363,-118.13396
Lamont,CA,35.25968,-118.91427
Lancaster,CA,34.69804,-118.13674
Larkfield-Wikiup,CA,38.51342,-122.75094
Larkspur,CA,37.93409,-122.53525
Las Flores,CA,33.58808,-117.62672
Las Lomas,CA,36.86523,-121.73495
Lassen County,CA,40.67359,-120.59433
Lathrop,CA,37.8227,-121.27661
Laton,CA,36.43328,-119.6868
Lawndale,CA,33.88724,-118.35257
Laytonville,CA,39.68821,-123.48279
Le Grand,CA,37.22855,-120.24823
Lebec,CA,34.84164,-118.86482
Lemon Grove,CA,32.74255,-117.03142
Lemoore,CA,36.30078,-119.78291
Lemoore Station,CA,36.26326,-119.90476
Lennox,CA,33.93807,-118.35258
Lenwood,CA,34.87665,-117.10393
Leona Valley,CA,34.61832,-118.28813
Lewiston,CA,40.70737,-122.80752
Lexington Hills,CA,37.16467,-121.97301
Lincoln,CA,38.89156,-121.29301
Lincoln Village,CA,38.0052,-121.32828
Linda,CA,39.12767,-121.5508
Linden,CA,38.02131,-121.08383
Lindsay,CA,36.20301,-119.08816
Littlerock,CA,34.5211,-117.98368
Live Oak,CA,36.98356,-121.98052
Livermore,CA,37.68187,-121.76801
Livingston,CA,37.38688,-120.72353
Lockeford,CA,38.16353,-121.14994
Lodi,CA,38.1302,-121.27245
Loma Linda,CA,34.04835,-117.26115
Loma Rica,CA,39.31183,-121.41774
Lomita,CA,33.79224,-118.31507
Lompico,CA,37.1055,-122.05274
Lompoc,CA,34.63915,-120.45794
London,CA,36.47606,-119.44318
Lone Pine,CA,36.60626,-118.06462
Long Beach,CA,33.76696,-118.18923
Loomis,CA,38.82129,-121.193
Los Alamitos,CA,33.80307,-118.07256
Los Alamos,CA,34.74443,-120.27821
Los Altos,CA,37.38522,-122.11413
Los Altos Hills,CA,37.37966,-122.13746
Los Angeles,CA,34.05223,-118.24368
Los Angeles County,CA,34.19801,-118.26102
Los Banos,CA,37.05828,-120.84992
Los Gatos,CA,37.22661,-121.97468
Los Molinos,CA,40.02127,-122.10027
Los Olivos,CA,34.66776,-120.11487
Los Osos,CA,35.31109,-120.8324
Los Serranos,CA,33.97279,-117.70811
Lost Hills,CA,35.61635,-119.69429
Lower Lake,CA,38.91045,-122.61026
Loyola,CA,37.35133,-122.10052
Lucas Valley-Marinwood,CA,38.04011,-122.5755
Lucerne,CA,36.38078,-119.6643
Lucerne Valley,CA,34.44389,-116.96781
Lynwood,CA,33.93029,-118.21146
Madera,CA,36.96134,-120.06072
Madera Acres,CA,37.01911,-120.06683
Madera County,CA,37.21804,-119.76265
Magalia,CA,39.81211,-121.57831
Malibu,CA,34.02577,-118.7804
Mammoth Lakes,CA,37.64855,-118.97208
Manhattan Beach,CA,33.88474,-118.41091
Manteca,CA,37.79743,-121.21605
March Air Force Base,CA,33.89209,-117.2631
Maricopa,CA,35.05886,-119.40095
Marin City,CA,37.86854,-122.50914
Marin County,CA,38.05518,-122.74886
Marina,CA,36.6844,-121.80217
Marina del Rey,CA,33.98029,-118.45174
Mariposa,CA,37.48494,-119.96628
Mariposa County,CA,37.58152,-119.90552
Martinez,CA,38.01937,-122.13413
Marysville,CA,39.14573,-121.59135
Matheny,CA,36.17066,-119.35158
Maxwell,CA,39.27628,-122.19137
Mayflower Village,CA,34.11501,-118.00979
Maywood,CA,33.98668,-118.18535
McCloud,CA,41.25571,-122.13945
McFarland,CA,35.67801,-119.22927
McKinleyville,CA,40.94652,-124.10062
Mead Valley,CA,33.83335,-117.29615
Meadow Vista,CA,39.00101,-121.02189
Meadowbrook,CA,33.72578,-117.28509
Mecca,CA,33.57219,-116.0782
Meiners Oaks,CA,34.44694,-119.27928
Mendocino County,CA,39.43362,-123.43155
Mendota,CA,36.75356,-120.38156
Menifee,CA,33.72835,-117.14642
Menlo Park,CA,37.45383,-122.18219
Mentone,CA,34.07001,-117.13448
Merced,CA,37.30216,-120.48297
Merced County,CA,37.19186,-120.71767
Mesa Verde,CA,33.60586,-114.73107
Middletown,CA,38.7524,-122.61499
Midpines,CA,37.54438,-119.92045
Midway City,CA,33.74474,-117.98923
Mill Valley,CA,37.90604,-122.54498
Millbrae,CA,37.59855,-122.38719
Milpitas,CA,37.42827,-121.90662
Minkler,CA,36.72384,-119.45818
Mira Mesa,CA,32.9156,-117.14392
Mira Monte,CA,34.43361,-119.28511
Mission Canyon,CA,34.45083,-119.71291
Mission District,CA,37.75993,-122.41914
Mission Hills,CA,34.68609,-120.43683
Mission Viejo,CA,33.60002,-117.672
Modesto,CA,37.6391,-120.99688
Modoc County,CA,41.58985,-120.72497
Mojave,CA,35.05247,-118.17396
Mono County,CA,37.93899,-118.88671
Mono Vista,CA,37.9977,-120.26991
Monrovia,CA,34.14806,-117.99895
Montague,CA,41.7282,-122.5278
Montalvin,CA,37.99548,-122.33275
Montara,CA,37.54216,-122.51609
Montclair,CA,34.07751,-117.68978
Monte Rio,CA,38.46547,-123.00889
Monte Sereno,CA,37.23633,-121.99246
Montebello,CA,34.00946,-118.10535
Montecito,CA,34.43666,-119.63208
Monterey,CA,36.60024,-121.89468
Monterey County,CA,36.23977,-121.3089
Monterey Park,CA,34.06251,-118.12285
Monument Hills,CA,38.66429,-121.87566
Moorpark,CA,34.28556,-118.88204
Morada,CA,38.03853,-121.24578
Moraga,CA,37.83493,-122.12969
Moreno Valley,CA,33.93752,-117.23059
Morgan Hill,CA,37.1305,-121.65439
Morongo Valley,CA,34.04695,-116.58085
Morro Bay,CA,35.36581,-120.8499
Moss Beach,CA,37.52744,-122.51331
Mount Hermon,CA,37.05106,-122.05857
Mount Shasta,CA,41.31024,-122.31225
Mountain House,CA,37.78326,-121.54273
Mountain Ranch,CA,38.22825,-120.54076
Mountain View,CA,37.38605,-122.08385
Mountain View Acres,CA,34.49666,-117.34894
Murphys,CA,38.13762,-120.46105
Murrieta,CA,33.55391,-117.21392
Murrieta Hot Springs,CA,33.56058,-117.15809
Muscoy,CA,34.15418,-117.34421
Myrtletown,CA,40.78874,-124.13034
Napa,CA,38.29714,-122.28553
Napa County,CA,38.50647,-122.33053
National City,CA,32.67811,-117.0992
Needles,CA,34.84806,-114.61413
Nevada City,CA,39.26173,-121.01779
Nevada County,CA,39.30137,-120.76875
Newark,CA,37.52966,-122.04024
Newcastle,CA,38.87407,-121.13328
Newman,CA,37.31383,-121.02076
Newport Beach,CA,33.61891,-117.92895
Nice,CA,39.12323,-122.84833
Niland,CA,33.24004,-115.51888
Nipomo,CA,35.04275,-120.476
Noe Valley,CA,37.75018,-122.43369
Norco,CA,33.93113,-117.54866
North Auburn,CA,38.93129,-121.08189
North Edwards,CA,35.01664,-117.83284
North El Monte,CA,34.10279,-118.02423
North Fair Oaks,CA,37.47438,-122.19663
North Highlands,CA,38.68574,-121.37217
North Hills,CA,34.23639,-118.48472
North Hollywood,CA,34.17223,-118.37897
North Lakeport,CA,39.08831,-122.90538
North Richmond,CA,37.95881,-122.36747
North Tustin,CA,33.76446,-117.79394
Northridge,CA,34.22834,-118.53675
Norwalk,CA,33.90224,-118.08173
Novato,CA,38.10742,-122.5697
Nuevo,CA,33.80141,-117.14587
Oak Hills,CA,34.38313,-117.38135
Oak Park,CA,34.17917,-118.76287
Oak View,CA,34.4,-119.30011
Oakdale,CA,37.76659,-120.84715
Oakhurst,CA,37.328,-119.64932
Oakland,CA,37.80437,-122.2708
Oakley,CA,37.99742,-121.71245
Oasis,CA,33.46586,-116.09889
Occidental,CA,38.40741,-122.94833
Oceano,CA,35.09886,-120.61239
Oceanside,CA,33.19587,-117.37948
Oildale,CA,35.41968,-119.01955
Ojai,CA,34.44805,-119.24289
Old Fig Garden,CA,36.79885,-119.80515
Olivehurst,CA,39.09545,-121.55219
Ontario,CA,34.06334,-117.65089
Opal Cliffs,CA,36.96078,-121.96413
Orange,CA,33.78779,-117.85311
Orange County,CA,33.67691,-117.77617
Orange Cove,CA,36.62439,-119.31373
Orangevale,CA,38.67851,-121.22578
Orcutt,CA,34.86526,-120.436
Orinda,CA,37.87715,-122.17969
Orland,CA,39.74738,-122.19637
Orosi,CA,36.54495,-119.28734
Oroville,CA,39.51394,-121.55776
Oroville East,CA,39.51126,-121.47519
Oxnard,CA,34.1975,-119.17705
Pacheco,CA,37.98353,-122.07524
Pacific Grove,CA,36.61774,-121.91662
Pacifica,CA,37.61383,-122.48692
Pajaro,CA,36.90412,-121.74856
Palermo,CA,39.43544,-121.53802
Palm Desert,CA,33.72255,-116.37697
Palm Springs,CA,33.8303,-116.54529
Palmdale,CA,34.57943,-118.11646
Palo Alto,CA,37.44188,-122.14302
Palo Cedro,CA,40.56376,-122.23889
Palos Verdes Estates,CA,33.80105,-118.39245
Paradise,CA,39.75961,-121.62192
Paramount,CA,33.88946,-118.15979
Parksdale,CA,36.94717,-120.02294
Parkway,CA,38.49602,-121.45884
Parkwood,CA,36.92689,-120.04461
Parlier,CA,36.61162,-119.52707
Pasadena,CA,34.14778,-118.14452
Pasatiempo,CA,37.00439,-122.0258
Paso Robles,CA,35.62664,-120.691
Patterson,CA,37.4716,-121.12966
Patterson Tract,CA,36.37952,-119.2956
Pedley,CA,33.97529,-117.47588
Penn Valley,CA,39.196,-121.19107
Penngrove,CA,38.29964,-122.66665
Perris,CA,33.78252,-117.22865
Petaluma,CA,38.23242,-122.63665
Phelan,CA,34.42611,-117.57228
Phoenix Lake,CA,38.00594,-120.30702
Pico Rivera,CA,33.98307,-118.09673
Piedmont,CA,37.82437,-122.23163
Pine Grove,CA,38.41297,-120.65882
Pine Hills,CA,40.73318,-124.15228
Pine Mountain Club,CA,34.84637,-119.14955
Pine Valley,CA,32.82144,-116.52918
Pinole,CA,38.00437,-122.29886
Piñon Hills,CA,34.43333,-117.64672
Pioneer,CA,38.43186,-120.57187
Piru,CA,34.41527,-118.79398
Pismo Beach,CA,35.14275,-120.64128
Pittsburg,CA,38.02798,-121.88468
Pixley,CA,35.96856,-119.29178
Placentia,CA,33.87224,-117.87034
Placer County,CA,39.06343,-120.71766
Placerville,CA,38.72963,-120.79855
Planada,CA,37.29077,-120.31852
Pleasant Hill,CA,37.94798,-122.0608
Pleasanton,CA,37.66243,-121.87468
Plumas County,CA,40.00468,-120.8386
Plumas Lake,CA,39.02073,-121.55802
Pollock Pines,CA,38.76158,-120.58611
Pomona,CA,34.05529,-117.75228
Poplar-Cotton Center,CA,36.05635,-119.14919
Port Hueneme,CA,34.14778,-119.19511
Porterville,CA,36.06523,-119.01677
Portola,CA,39.81046,-120.4691
Portola Hills,CA,33.67919,-117.63116
Portola Valley,CA,37.38411,-122.23524
Poway,CA,32.96282,-117.03586
Prunedale,CA,36.77579,-121.66967
Quail Valley,CA,33.70697,-117.24504
Quartz Hill,CA,34.64526,-118.21813
Quincy,CA,39.93682,-120.94647
Rainbow,CA,33.41031,-117.14781
Ramona,CA,33.04171,-116.86808
Rancho Calaveras,CA,38.12742,-120.85827
Rancho Cordova,CA,38.58907,-121.30273
Rancho Cucamonga,CA,34.1064,-117.59311
Rancho Mirage,CA,33.73974,-116.41279
Rancho Murieta,CA,38.50185,-121.09467
Rancho Palos Verdes,CA,33.74446,-118.38702
Rancho Penasquitos,CA,32.95949,-117.11531
Rancho San Diego,CA,32.74727,-116.9353
Rancho Santa Fe,CA,33.02032,-117.20281
Rancho Santa Margarita,CA,33.64086,-117.6031
Rancho Tehama Reserve,CA,40.01569,-122.40072
Red Bluff,CA,40.17849,-122.23583
Red Corral,CA,38.41165,-120.60552
Redding,CA,40.58654,-122.39168
Redlands,CA,34.05557,-117.18254
Redondo Beach,CA,33.84918,-118.38841
Redway,CA,40.12014,-123.82336
Redwood City,CA,37.48522,-122.23635
Redwood Shores,CA,37.53188,-122.24802
Redwood Valley,CA,39.26544,-123.20445
Reedley,CA,36.59634,-119.4504
Rialto,CA,34.1064,-117.37032
Richgrove,CA,35.79662,-119.10788
Richmond,CA,37.93576,-122.34775
Ridgecrest,CA,35.62246,-117.6709
Ridgemark,CA,36.81246,-121.36577
Rio Del Mar,CA,36.96828,-121.90023
Rio Dell,CA,40.4993,-124.10644
Rio Linda,CA,38.69101,-121.44857
Rio Vista,CA,38.16389,-121.69583
Ripon,CA,37.74159,-121.12438
Riverbank,CA,37.73604,-120.93549
Riverdale,CA,36.43106,-119.85958
Riverdale Park,CA,37.60938,-121.05188
Riverside,CA,33.95335,-117.39616
Riverside County,CA,33.74368,-115.99386
Rocklin,CA,38.79073,-121.23578
Rodeo,CA,38.03298,-122.26691
Rohnert Park,CA,38.33964,-122.7011
Rolling Hills,CA,33.75739,-118.35752
Rolling Hills Estates,CA,33.78779,-118.35813
Rollingwood,CA,37.9652,-122.32997
Romoland,CA,33.74585,-117.17503
Rosamond,CA,34.86414,-118.16341
Rosedale,CA,35.38357,-119.14538
Roseland,CA,38.42213,-122.72804
Rosemead,CA,34.08057,-118.07285
Rosemont,CA,38.55185,-121.36467
Roseville,CA,38.75212,-121.28801
Ross,CA,37.96242,-122.55498
Rossmoor,CA,33.78557,-118.08506
Rowland Heights,CA,33.97612,-117.90534
Rubidoux,CA,33.99613,-117.4056
Running Springs,CA,34.20779,-117.1092
Sacramento,CA,38.58157,-121.4944
Sacramento County,CA,38.44932,-121.34424
Saint Helena,CA,38.50519,-122.47026
Salida,CA,37.70576,-121.08494
Salinas,CA,36.67774,-121.6555
Salton City,CA,33.29865,-115.95611
San Andreas,CA,38.19603,-120.68049
San Anselmo,CA,37.97465,-122.56164
San Antonio Heights,CA,34.15556,-117.65644
San Benito County,CA,36.60571,-121.075
San Bernardino,CA,34.10834,-117.28977
San Bernardino County,CA,34.84143,-116.17846
San Bruno,CA,37.63049,-122.41108
San Carlos,CA,37.50716,-122.26052
San Clemente,CA,33.42697,-117.61199
San Diego,CA,32.71571,-117.16472
San Diego Country Estates,CA,33.00671,-116.78364
San Diego County,CA,33.0282,-116.77021
San Dimas,CA,34.10668,-117.80673
San Fernando,CA,34.28195,-118.43897
San Francisco,CA,37.77493,-122.41942
San Gabriel,CA,34.09611,-118.10583
San Jacinto,CA,33.78391,-116.95864
San Joaquin,CA,36.60662,-120.18904
San Joaquin County,CA,37.93478,-121.27145
San Joaquin Hills,CA,33.61169,-117.83672
San Jose,CA,37.33939,-121.89496
San Juan Bautista,CA,36.84551,-121.538
San Juan Capistrano,CA,33.50169,-117.66255
San Leandro,CA,37.72493,-122.15608
San Lorenzo,CA,37.68104,-122.12441
San Luis Obispo,CA,35.28275,-120.65962
San Luis Obispo County,CA,35.38742,-120.4522
San Marcos,CA,33.14337,-117.16614
San Marino,CA,34.1214,-118.10646
San Martin,CA,37.08495,-121.61022
San Mateo,CA,37.56299,-122.32553
San Mateo County,CA,37.43621,-122.35566
San Miguel,CA,35.75247,-120.69628
San Pablo,CA,37.96215,-122.34553
San Pasqual,CA,33.09171,-116.95392
San Pedro,CA,33.73585,-118.29229
San Rafael,CA,37.97353,-122.53109
San Ramon,CA,37.77993,-121.97802
Sanger,CA,36.70801,-119.55597
Santa Ana,CA,33.74557,-117.86783
Santa Barbara,CA,34.42083,-119.69819
Santa Barbara County,CA,34.53834,-120.03078
Santa Clara,CA,37.35411,-121.95524
Santa Clara County,CA,37.23249,-121.69627
Santa Clarita,CA,34.39166,-118.54259
Santa Cruz,CA,36.97412,-122.0308
Santa Cruz County,CA,37.02161,-122.00979
Santa Fe Springs,CA,33.94724,-118.08535
Santa Margarita,CA,35.38997,-120.60906
Santa Maria,CA,34.95303,-120.43572
Santa Monica,CA,34.01945,-118.49119
Santa Paula,CA,34.35417,-119.05927
Santa Rosa,CA,38.44047,-122.71443
Santa Susana,CA,34.27167,-118.70898
Santa Venetia,CA,37.99853,-122.52525
Santa Ynez,CA,34.61443,-120.07987
Santee,CA,32.83838,-116.97392
Saranap,CA,37.88492,-122.07607
Saratoga,CA,37.26383,-122.02301
Saticoy,CA,34.28306,-119.14983
Sausalito,CA,37.85909,-122.48525
Scotts Valley,CA,37.05106,-122.01468
Sea Ranch,CA,38.71519,-123.45445
Seacliff,CA,36.97412,-121.91579
Seal Beach,CA,33.74141,-118.10479
Searles Valley,CA,35.76745,-117.40395
Seaside,CA,36.61107,-121.85162
Sebastopol,CA,38.40214,-122.82388
Sedco Hills,CA,33.64169,-117.29087
Seeley,CA,32.79311,-115.69111
Selma,CA,36.57078,-119.61208
Seven Trees,CA,37.28605,-121.83856
Shackelford,CA,37.61382,-120.99271
Shadow Hills,CA,34.26195,-118.35175
Shafter,CA,35.50051,-119.27178
Shandon,CA,35.65525,-120.37543
Shasta,CA,40.59932,-122.49196
Shasta County,CA,40.76377,-122.04052
Shasta Lake,CA,40.68043,-122.37084
Sheridan,CA,38.97962,-121.37551
Sherman Oaks,CA,34.15112,-118.44925
Shingle Springs,CA,38.66574,-120.92605
Shingletown,CA,40.49238,-121.88916
Sierra County,CA,39.5804,-120.516
Sierra Madre,CA,34.16167,-118.05285
Signal Hill,CA,33.80446,-118.16785
Silver Lake,CA,34.08668,-118.27023
Silver Lakes,CA,34.74558,-117.34098
Simi Valley,CA,34.26945,-118.78148
Siskiyou County,CA,41.59265,-122.54037
Sky Valley,CA,33.89001,-116.35251
Sleepy Hollow,CA,38.01048,-122.58442
Soda Bay,CA,39.00101,-122.78916
Solana Beach,CA,32.99115,-117.27115
Solano County,CA,38.26692,-121.94001
Soledad,CA,36.42469,-121.32632
Solvang,CA,34.59582,-120.13765
Sonoma,CA,38.29186,-122.45804
Sonoma County,CA,38.52529,-122.92254
Sonora,CA,37.98409,-120.38214
Soquel,CA,36.98801,-121.95663
Sorrento Valley,CA,32.89991,-117.19451
Soulsbyville,CA,37.98465,-120.2638
South Dos Palos,CA,36.96439,-120.65324
South El Monte,CA,34.05195,-118.04673
South Gate,CA,33.95474,-118.21202
South Lake Tahoe,CA,38.93324,-119.98435
South Oroville,CA,39.49655,-121.55219
South Pasadena,CA,34.11612,-118.15035
South San Francisco,CA,37.65466,-122.40775
South San Gabriel,CA,34.04915,-118.09462
South San Jose Hills,CA,34.01279,-117.90478
South Taft,CA,35.13469,-119.45623
South Whittier,CA,33.95015,-118.03917
South Yuba City,CA,39.11656,-121.63913
Spring Valley,CA,32.74477,-116.99892
Spring Valley Lake,CA,34.49364,-117.26832
Squaw Valley,CA,36.74023,-119.24679
Stallion Springs,CA,35.08886,-118.64259
Stanford,CA,37.42411,-122.16608
Stanislaus County,CA,37.55914,-120.99769
Stanton,CA,33.80252,-117.99312
Stevenson Ranch,CA,34.39048,-118.57372
Stockton,CA,37.9577,-121.29078
Stratford,CA,36.1894,-119.82319
Strathmore,CA,36.14551,-119.06066
Strawberry,CA,37.89687,-122.50886
Studio City,CA,34.14862,-118.39647
Suisun,CA,38.23825,-122.04024
Summerland,CA,34.42138,-119.59652
Sun City,CA,33.70919,-117.19726
Sun Village,CA,34.55952,-117.95676
Sunland,CA,34.26695,-118.3023
Sunnyside,CA,36.74912,-119.69931
Sunnyside-Tahoe City,CA,39.15023,-120.1612
Sunnyslope,CA,34.01196,-117.43338
Sunnyvale,CA,37.36883,-122.03635
Susanville,CA,40.41628,-120.65301
Sutter,CA,39.15989,-121.75275
Sutter County,CA,39.03452,-121.69484
Sutter Creek,CA,38.39297,-120.80244
Taft,CA,35.14247,-119.45651
Taft Heights,CA,35.13469,-119.47262
Taft Mosswood,CA,37.91385,-121.28316
Tahoe Vista,CA,39.23991,-120.05102
Tahoma,CA,39.06741,-120.12824
Talmage,CA,39.13323,-123.16778
Tamalpais Valley,CA,37.87965,-122.54581
Tamalpais-Homestead Valley,CA,37.87834,-122.53625
Tara Hills,CA,37.99353,-122.31636
Tarpey Village,CA,36.79301,-119.70097
Tehachapi,CA,35.13219,-118.44897
Tehama County,CA,40.12574,-122.23388
Temecula,CA,33.49364,-117.14836
Temelec,CA,38.26658,-122.49276
Temple City,CA,34.10723,-118.05785
Templeton,CA,35.54969,-120.706
Terra Bella,CA,35.96245,-119.04427
Teviston,CA,35.92894,-119.27831
Thermal,CA,33.6403,-116.13945
Thermalito,CA,39.51128,-121.58692
Thornton,CA,38.22603,-121.42467
Thousand Oaks,CA,34.17056,-118.83759
Thousand Palms,CA,33.82002,-116.39029
Three Rivers,CA,36.43884,-118.90454
Tiburon,CA,37.87354,-122.45664
Tierra Buena,CA,39.14878,-121.66691
Tipton,CA,36.0594,-119.31206
Topanga,CA,34.09362,-118.60147
Toro Canyon,CA,34.42,-119.56707
Torrance,CA,33.83585,-118.34063
Trabuco Canyon,CA,33.66252,-117.59033
Tracy,CA,37.73987,-121.42618
Trinity County,CA,40.65069,-123.11263
Truckee,CA,39.32796,-120.18325
Tujunga,CA,34.25223,-118.28841
Tulare,CA,36.20773,-119.34734
Tulare County,CA,36.22016,-118.80047
Tuolumne City,CA,37.9627,-120.2413
Tuolumne County,CA,38.0276,-119.95475
Turlock,CA,37.49466,-120.84659
Tustin,CA,33.74585,-117.82617
Twain Harte,CA,38.03965,-120.23269
Twentynine Palms,CA,34.13556,-116.05417
Twin Lakes,CA,36.96745,-121.99802
Ukiah,CA,39.15017,-123.20778
Union City,CA,37.59577,-122.01913
Universal City,CA,34.1389,-118.35341
Upland,CA,34.09751,-117.64839
Upper Lake,CA,39.16461,-122.91055
Vacaville,CA,38.35658,-121.98774
Val Verde,CA,34.445,-118.65759
Valencia,CA,34.44361,-118.60953
Valinda,CA,34.04529,-117.94367
Valle Vista,CA,33.7478,-116.89336
Vallejo,CA,38.10409,-122.25664
Valley Center,CA,33.21837,-117.0342
Valley Glen,CA,34.18991,-118.44953
Valley Springs,CA,38.19159,-120.8291
Van Nuys,CA,34.18667,-118.44897
Vandenberg Air Force Base,CA,34.7483,-120.51817
Vandenberg Village,CA,34.70832,-120.46766
Venice,CA,33.99084,-118.46008
Ventura,CA,34.27834,-119.29317
Ventura County,CA,34.35753,-119.12603
Victorville,CA,34.53611,-117.29116
View Park-Windsor Hills,CA,33.99551,-118.34835
Villa Park,CA,33.81446,-117.81311
Vincent,CA,34.50055,-118.11646
Vine Hill,CA,38.00853,-122.09608
Vineyard,CA,38.46449,-121.34692
Visalia,CA,36.33023,-119.29206
Visitacion Valley,CA,37.71715,-122.40433
Vista,CA,33.20004,-117.24254
Vista Santa Rosa,CA,33.6278,-116.21806
Waldon,CA,37.92631,-122.05552
Walnut,CA,34.02029,-117.86534
Walnut Creek,CA,37.90631,-122.06496
Walnut Grove,CA,38.24214,-121.51162
Walnut Park,CA,33.96807,-118.22507
Wasco,CA,35.59412,-119.34095
Waterford,CA,37.64132,-120.76048
Watsonville,CA,36.91023,-121.75689
Weaverville,CA,40.73098,-122.94197
Weed,CA,41.42265,-122.38613
Weedpatch,CA,35.23802,-118.9151
Weldon,CA,35.66579,-118.29036
West Athens,CA,33.92335,-118.30341
West Bishop,CA,37.36104,-118.45511
West Carson,CA,33.82168,-118.29257
West Covina,CA,34.06862,-117.93895
West Hills,CA,34.19731,-118.64398
West Hollywood,CA,34.09001,-118.36174
West Menlo Park,CA,37.43355,-122.20302
West Modesto,CA,37.61754,-121.03914
West Park,CA,36.71023,-119.85126
West Puente Valley,CA,34.05168,-117.9684
West Rancho Dominguez,CA,33.8939,-118.27063
West Sacramento,CA,38.58046,-121.53023
West Whittier-Los Nietos,CA,33.976,-118.06909
Westhaven-Moonstone,CA,41.04489,-124.10239
Westlake Village,CA,34.14584,-118.80565
Westminster,CA,33.75918,-118.00673
Westmont,CA,33.9414,-118.3023
Westmorland,CA,33.03727,-115.62138
Westwood,CA,34.05612,-118.43063
Wheatland,CA,39.00989,-121.42301
Whittier,CA,33.97918,-118.03284
Wildomar,CA,33.59891,-117.28004
Williams,CA,39.15461,-122.14942
Willits,CA,39.40961,-123.35557
Willow Creek,CA,40.93958,-123.63144
Willowbrook,CA,33.91696,-118.25507
Willows,CA,39.52433,-122.19359
Wilton,CA,38.41186,-121.27217
Winchester,CA,33.70697,-117.08447
Windsor,CA,38.54713,-122.81638
Winter Gardens,CA,32.83116,-116.93336
Winters,CA,38.52491,-121.9708
Winton,CA,37.38938,-120.61325
Wofford Heights,CA,35.7069,-118.4562
Woodacre,CA,38.0127,-122.64526
Woodbridge,CA,38.15408,-121.30134
Woodcrest,CA,33.88224,-117.35727
Woodlake,CA,36.41356,-119.09872
Woodland,CA,38.67852,-121.7733
Woodland Hills,CA,34.16834,-118.60592
Woodside,CA,37.42994,-122.25386
Woodville,CA,36.09356,-119.199
Wrightwood,CA,34.36083,-117.63339
Yolo County,CA,38.68665,-121.90162
Yorba Linda,CA,33.88863,-117.81311
Yosemite Lakes,CA,37.19106,-119.77265
Yosemite Valley,CA,37.74075,-119.57788
Yountville,CA,38.40158,-122.36081
Yreka,CA,41.73542,-122.63447
Yuba City,CA,39.14045,-121.61691
Yuba County,CA,39.26902,-121.35126
Yucaipa,CA,34.03363,-117.04309
Yucca Valley,CA,34.11417,-116.43224
