name,state_code,latitude,longitude
Alexander,AR,34.62954,-92.44127
Alma,AR,35.47787,-94.22188
Arkadelphia,AR,34.12093,-93.05378
Arkansas City,AR,33.60872,-91.20678
Arkansas County,AR,34.29081,-91.37491
Ash Flat,AR,36.22396,-91.60848
Ashdown,AR,33.67429,-94.13131
Ashley County,AR,33.19122,-91.76845
Atkins,AR,35.24647,-92.93656
Augusta,AR,35.28231,-91.36541
Austin,AR,34.99842,-91.98376
Bald Knob,AR,35.30981,-91.56791
Barling,AR,35.32565,-94.3016
Batesville,AR,35.7698,-91.64097
Baxter County,AR,36.28719,-92.33697
Bay,AR,35.7423,-90.56233
Beebe,AR,35.07064,-91.87959
Bella Vista,AR,36.4807,-94.27134
Benton,AR,34.56454,-92.58683
Benton County,AR,36.33872,-94.25619
Bentonville,AR,36.37285,-94.20882
Berryville,AR,36.36479,-93.56797
Bethel Heights,AR,36.21424,-94.12937
Blytheville,AR,35.9273,-89.91898
Bono,AR,35.90868,-90.80262
Boone County,AR,36.30859,-93.0915
Booneville,AR,35.14009,-93.92159
Bradley County,AR,33.46642,-92.1624
Brinkley,AR,34.88787,-91.19457
Brookland,AR,35.90007,-90.58205
Bryant,AR,34.59593,-92.48905
Bull Shoals,AR,36.38396,-92.58155
Cabot,AR,34.97453,-92.01653
Calhoun County,AR,33.55803,-92.50304
Calico Rock,AR,36.11951,-92.13599
Camden,AR,33.58456,-92.83433
Caraway,AR,35.75813,-90.32232
Carlisle,AR,34.78315,-91.74652
Carroll County,AR,36.34102,-93.53818
Cave City,AR,35.94174,-91.54847
Cave Springs,AR,36.26341,-94.23187
Cedarville,AR,35.56981,-94.36688
Centerton,AR,36.3598,-94.28521
Charleston,AR,35.29704,-94.03632
Cherokee Village,AR,36.29784,-91.51597
Chicot County,AR,33.26725,-91.29397
Clarendon,AR,34.69315,-91.31374
Clark County,AR,34.05096,-93.17637
Clarksville,AR,35.47147,-93.46657
Clay County,AR,36.36839,-90.41738
Cleburne County,AR,35.53811,-92.02674
Cleveland County,AR,33.89836,-92.18514
Clinton,AR,35.59147,-92.46044
Coal Hill,AR,35.43731,-93.67297
Columbia County,AR,33.21429,-93.22731
Conway,AR,35.0887,-92.4421
Conway County,AR,35.26221,-92.70132
Corning,AR,36.40784,-90.57983
Craighead County,AR,35.83079,-90.63285
Crawford County,AR,35.58883,-94.24312
Crittenden County,AR,35.20794,-90.30886
Cross County,AR,35.29573,-90.77123
Crossett,AR,33.12818,-91.96124
Dallas County,AR,33.96983,-92.65444
Danville,AR,35.05398,-93.39352
Dardanelle,AR,35.22314,-93.15795
De Queen,AR,34.03789,-94.34132
De Witt,AR,34.29288,-91.3379
Decatur,AR,36.33591,-94.46077
Dermott,AR,33.52539,-91.43595
Des Arc,AR,34.97704,-91.49513
Desha County,AR,33.83333,-91.25395
Diaz,AR,35.63841,-91.26513
Dierks,AR,34.11928,-94.01658
Dover,AR,35.40147,-93.11434
Drew County,AR,33.58945,-91.72002
Dumas,AR,33.88705,-91.49179
Earle,AR,35.27509,-90.46677
East End,AR,34.55065,-92.34099
El Dorado,AR,33.20763,-92.66627
Elkins,AR,36.00147,-94.00825
Elm Springs,AR,36.20619,-94.23437
England,AR,34.54426,-91.96903
Eudora,AR,33.10957,-91.26206
Eureka Springs,AR,36.40118,-93.73797
Fairfield Bay,AR,35.59424,-92.27793
Farmington,AR,36.04202,-94.24715
Faulkner County,AR,35.14698,-92.33204
Fayetteville,AR,36.06258,-94.15743
Flippin,AR,36.27896,-92.59711
Fordyce,AR,33.81372,-92.41293
Forrest City,AR,35.00815,-90.78983
Fort Smith,AR,35.38592,-94.39855
Franklin County,AR,35.51235,-93.89062
Fulton County,AR,36.38167,-91.81824
Garland County,AR,34.57669,-93.15043
Gassville,AR,36.28312,-92.49405
Gentry,AR,36.26758,-94.48466
Gibson,AR,34.88426,-92.2357
Glenwood,AR,34.32677,-93.55074
Goshen,AR,36.10119,-93.99131
Gosnell,AR,35.95979,-89.97203
Grant County,AR,34.29002,-92.42358
Gravel Ridge,AR,34.86842,-92.1907
Gravette,AR,36.42202,-94.45355
Green Forest,AR,36.33535,-93.43602
Greenbrier,AR,35.23397,-92.38765
Greene County,AR,36.11769,-90.55908
Greenland,AR,35.99425,-94.1752
Greenwood,AR,35.21565,-94.25577
Gurdon,AR,33.92094,-93.15406
Hamburg,AR,33.22818,-91.79763
Hampton,AR,33.53789,-92.46988
Harrisburg,AR,35.56425,-90.71678
Harrison,AR,36.22979,-93.10768
Haskell,AR,34.50148,-92.63655
Hazen,AR,34.78093,-91.58097
Heber Springs,AR,35.49147,-92.03126
Helena,AR,34.52955,-90.59177
Helena-West Helena,AR,34.5291,-90.59
Hempstead County,AR,33.7353,-93.66844
Highland,AR,36.2759,-91.52403
Holiday Island,AR,36.48535,-93.73214
Hope,AR,33.66706,-93.59157
Horatio,AR,33.93845,-94.35715
Horseshoe Bend,AR,36.22923,-91.76431
Hot Spring County,AR,34.31763,-92.94601
Hot Springs,AR,34.5037,-93.05518
Hot Springs National Park,AR,34.5317,-93.06377
Hot Springs Village,AR,34.67204,-92.99879
Howard County,AR,34.08874,-93.99349
Hoxie,AR,36.05035,-90.97512
Hughes,AR,34.94926,-90.47149
Huntsville,AR,36.08619,-93.7413
Independence County,AR,35.74158,-91.56972
Izard County,AR,36.09487,-91.91342
Jackson County,AR,35.59923,-91.21457
Jacksonville,AR,34.8662,-92.11015
Jasper,AR,36.00813,-93.18657
Jefferson County,AR,34.26879,-91.93151
Johnson,AR,36.13286,-94.16548
Johnson County,AR,35.57005,-93.45991
Jonesboro,AR,35.8423,-90.70428
Judsonia,AR,35.27009,-91.63986
Kensett,AR,35.23175,-91.66764
Lafayette County,AR,33.24098,-93.60704
Lake City,AR,35.81619,-90.43427
Lake Hamilton,AR,34.42453,-93.09518
Lake Village,AR,33.32873,-91.28178
Lamar,AR,35.44064,-93.38796
Landmark,AR,34.6112,-92.3196
Lavaca,AR,35.3362,-94.17326
Lawrence County,AR,36.04125,-91.10708
Leachville,AR,35.93591,-90.25788
Lee County,AR,34.78062,-90.78207
Lepanto,AR,35.61119,-90.32982
Lewisville,AR,33.35846,-93.57768
Lincoln,AR,35.94953,-94.42355
Lincoln County,AR,33.95747,-91.73332
Little Flock,AR,36.38591,-94.1352
Little River County,AR,33.70054,-94.23434
Little Rock,AR,34.74648,-92.28959
Little Rock Air Force Base,AR,34.89149,-92.15955
Logan County,AR,35.21527,-93.71631
London,AR,35.32897,-93.25296
Lonoke,AR,34.78398,-91.89986
Lonoke County,AR,34.75427,-91.88867
Lowell,AR,36.25535,-94.13076
Luxora,AR,35.75619,-89.92814
Madison County,AR,36.01096,-93.72456
Magnolia,AR,33.26707,-93.23933
Malvern,AR,34.36231,-92.81295
Manila,AR,35.88007,-90.16704
Mansfield,AR,35.05954,-94.25271
Marianna,AR,34.77371,-90.75761
Marion,AR,35.21453,-90.19648
Marion County,AR,36.26835,-92.68422
Marked Tree,AR,35.53286,-90.42066
Marmaduke,AR,36.18701,-90.38316
Marshall,AR,35.90896,-92.63127
Marvell,AR,34.55566,-90.91289
Maumelle,AR,34.86676,-92.40432
Mayflower,AR,34.95703,-92.42738
McAlmont,AR,34.80842,-92.18181
McCrory,AR,35.2562,-91.20012
McGehee,AR,33.629,-91.39956
Melbourne,AR,36.05951,-91.90848
Mena,AR,34.58622,-94.23966
Midway,AR,36.38534,-92.46183
Miller County,AR,33.31215,-93.89156
Mineral Springs,AR,33.87512,-93.9138
Mississippi County,AR,35.7639,-90.05417
Monette,AR,35.89063,-90.34427
Monroe County,AR,34.67784,-91.20389
Montgomery County,AR,34.53879,-93.65953
Monticello,AR,33.629,-91.79096
Morrilton,AR,35.15092,-92.74405
Mount Ida,AR,34.55676,-93.63408
Mountain Home,AR,36.33534,-92.38516
Mountain View,AR,35.86841,-92.11765
Mulberry,AR,35.50064,-94.05159
Murfreesboro,AR,34.06233,-93.6899
Nashville,AR,33.94567,-93.84713
Nevada County,AR,33.66397,-93.30714
Newark,AR,35.70174,-91.44152
Newport,AR,35.6048,-91.2818
Newton County,AR,35.91997,-93.21787
North Crossett,AR,33.16568,-91.94152
North Little Rock,AR,34.76954,-92.26709
Ola,AR,35.03231,-93.22323
Osceola,AR,35.70508,-89.96953
Ouachita County,AR,33.59336,-92.88193
Ozark,AR,35.48703,-93.8277
Paragould,AR,36.0584,-90.49733
Paris,AR,35.29203,-93.72992
Parkin,AR,35.26342,-90.57122
Pea Ridge,AR,36.45396,-94.1152
Perry County,AR,34.94737,-92.93147
Perryville,AR,35.00481,-92.80267
Phillips County,AR,34.42829,-90.84802
Piggott,AR,36.38284,-90.19065
Pike County,AR,34.1635,-93.65634
Pine Bluff,AR,34.22843,-92.0032
Piney,AR,34.50314,-93.12602
Pocahontas,AR,36.26146,-90.97123
Poinsett County,AR,35.57404,-90.66293
Polk County,AR,34.48584,-94.22807
Pope County,AR,35.44763,-93.03416
Pottsville,AR,35.24814,-93.04906
Prairie County,AR,34.82979,-91.55277
Prairie Creek,AR,36.34202,-94.06187
Prairie Grove,AR,35.97591,-94.31771
Prescott,AR,33.80261,-93.38101
Pulaski County,AR,34.76993,-92.3118
Randolph County,AR,36.34148,-91.02772
Rector,AR,36.26312,-90.2926
Redfield,AR,34.4451,-92.1832
Rison,AR,33.95843,-92.19015
Rockwell,AR,34.46426,-93.13379
Rogers,AR,36.33202,-94.11854
Russellville,AR,35.27842,-93.13379
Saint Francis County,AR,35.022,-90.74778
Salem,AR,34.62898,-92.55822
Saline County,AR,34.64662,-92.67657
Scott County,AR,34.86077,-94.06325
Searcy,AR,35.25064,-91.73625
Searcy County,AR,35.9109,-92.69949
Sebastian County,AR,35.19926,-94.27391
Sevier County,AR,33.9972,-94.24122
Shannon Hills,AR,34.62009,-92.39543
Sharp County,AR,36.16116,-91.47986
Sheridan,AR,34.30704,-92.40127
Sherwood,AR,34.81509,-92.22432
Siloam Springs,AR,36.18814,-94.5405
Smackover,AR,33.36485,-92.72488
Southside,AR,35.69841,-91.62347
Springdale,AR,36.18674,-94.12881
Stamps,AR,33.3654,-93.49518
Star City,AR,33.94288,-91.84347
Stone County,AR,35.85987,-92.15668
Stuttgart,AR,34.50037,-91.55263
Sulphur Springs,AR,34.18065,-92.12348
Texarkana,AR,33.44179,-94.03769
Tontitown,AR,36.17786,-94.23354
Trumann,AR,35.67369,-90.50733
Tuckerman,AR,35.73063,-91.19846
Union County,AR,33.17136,-92.59729
Van Buren,AR,35.43676,-94.34827
Van Buren County,AR,35.58065,-92.5157
Vilonia,AR,35.08398,-92.20793
Waldo,AR,33.35151,-93.29573
Waldron,AR,34.89843,-94.09076
Walnut Ridge,AR,36.0684,-90.95595
Ward,AR,35.03036,-91.95042
Warren,AR,33.61261,-92.06458
Washington County,AR,35.97907,-94.21558
West Crossett,AR,33.14096,-91.99402
West Fork,AR,35.92425,-94.18854
West Helena,AR,34.55066,-90.64177
West Memphis,AR,35.14648,-90.18454
White County,AR,35.25627,-91.74555
White Hall,AR,34.27399,-92.09098
Woodruff County,AR,35.18633,-91.24307
Wrightsville,AR,34.60232,-92.21681
Wynne,AR,35.22453,-90.78678
Yell County,AR,35.0026,-93.41125
Yellville,AR,36.22618,-92.68489
